{
"type": "FeatureCollection",
"crs": { "type": "name", "properties": { "name": "urn:ogc:def:crs:OGC:1.3:CRS84" } },
"features": [
{ "type": "Feature", "properties": { "stationID_NWS": "APTA2", "stationID_USGS": "15239900", "riverName": null, "community": null }, "geometry": { "type": "Point", "coordinates": [ -151.753055555555562, 59.74722222222222 ] } },
{ "type": "Feature", "properties": { "stationID_NWS": "BATA2", "stationID_USGS": "15238986", "riverName": null, "community": null }, "geometry": { "type": "Point", "coordinates": [ -150.953055555555551, 59.762333333333331 ] } },
{ "type": "Feature", "properties": { "stationID_NWS": "BRNA2", "stationID_USGS": "15239060", "riverName": null, "community": null }, "geometry": { "type": "Point", "coordinates": [ -150.863333333333344, 59.798333333333332 ] } },
{ "type": "Feature", "properties": { "stationID_NWS": "BRRA2", "stationID_USGS": "15239001", "riverName": null, "community": null }, "geometry": { "type": "Point", "coordinates": [ -150.850555555555559, 59.758333333333333 ] } },
{ "type": "Feature", "properties": { "stationID_NWS": "BRTA2", "stationID_USGS": "15239070", "riverName": null, "community": null }, "geometry": { "type": "Point", "coordinates": [ -150.88277777777779, 59.801666666666669 ] } },
{ "type": "Feature", "properties": { "stationID_NWS": "BRUA2", "stationID_USGS": "15238990", "riverName": null, "community": null }, "geometry": { "type": "Point", "coordinates": [ -150.7025, 59.700555555555553 ] } },
{ "type": "Feature", "properties": { "stationID_NWS": "CCSA2", "stationID_USGS": "15274600", "riverName": null, "community": null }, "geometry": { "type": "Point", "coordinates": [ -149.923333333333346, 61.139444444444443 ] } },
{ "type": "Feature", "properties": { "stationID_NWS": "CHLA2", "stationID_USGS": "15511000", "riverName": null, "community": null }, "geometry": { "type": "Point", "coordinates": [ -147.247222222222234, 64.886111111111106 ] } },
{ "type": "Feature", "properties": { "stationID_NWS": "CHRA2", "stationID_USGS": "15275100", "riverName": null, "community": null }, "geometry": { "type": "Point", "coordinates": [ -149.895277777777778, 61.205277777777781 ] } },
{ "type": "Feature", "properties": { "stationID_NWS": "CJXA2", "stationID_USGS": "15304000", "riverName": null, "community": null }, "geometry": { "type": "Point", "coordinates": [ -158.111388888888882, 61.869444444444447 ] } },
{ "type": "Feature", "properties": { "stationID_NWS": "CKDA2", "stationID_USGS": "15304010", "riverName": null, "community": null }, "geometry": { "type": "Point", "coordinates": [ -158.154444444444437, 61.89 ] } },
{ "type": "Feature", "properties": { "stationID_NWS": "COCA2", "stationID_USGS": "15261000", "riverName": null, "community": null }, "geometry": { "type": "Point", "coordinates": [ -149.88055555555556, 60.480555555555554 ] } },
{ "type": "Feature", "properties": { "stationID_NWS": "COOA2", "stationID_USGS": "15258000", "riverName": null, "community": null }, "geometry": { "type": "Point", "coordinates": [ -149.807777777777773, 60.492777777777775 ] } },
{ "type": "Feature", "properties": { "stationID_NWS": "EKLA2", "stationID_USGS": "15278000", "riverName": null, "community": null }, "geometry": { "type": "Point", "coordinates": [ -149.122222222222234, 61.410833333333336 ] } },
{ "type": "Feature", "properties": { "stationID_NWS": "ESHA2", "stationID_USGS": "15237030", "riverName": null, "community": null }, "geometry": { "type": "Point", "coordinates": [ -148.108, 60.451888888888888 ] } },
{ "type": "Feature", "properties": { "stationID_NWS": "GCGA2", "stationID_USGS": "15272502", "riverName": null, "community": null }, "geometry": { "type": "Point", "coordinates": [ -149.131919444444435, 60.961619444444445 ] } },
{ "type": "Feature", "properties": { "stationID_NWS": "GCOA2", "stationID_USGS": "15215900", "riverName": null, "community": null }, "geometry": { "type": "Point", "coordinates": [ -145.378611111111098, 60.533333333333331 ] } },
{ "type": "Feature", "properties": { "stationID_NWS": "GCSA2", "stationID_USGS": "15292000", "riverName": null, "community": null }, "geometry": { "type": "Point", "coordinates": [ -149.691111111111098, 62.767777777777781 ] } },
{ "type": "Feature", "properties": { "stationID_NWS": "GKGA2", "stationID_USGS": "15478038", "riverName": null, "community": null }, "geometry": { "type": "Point", "coordinates": [ -145.405277777777769, 63.259444444444448 ] } },
{ "type": "Feature", "properties": { "stationID_NWS": "GROA2", "stationID_USGS": "15237730", "riverName": null, "community": null }, "geometry": { "type": "Point", "coordinates": [ -149.373333333333335, 60.198333333333331 ] } },
{ "type": "Feature", "properties": { "stationID_NWS": "GRSA2", "stationID_USGS": "15200280", "riverName": null, "community": null }, "geometry": { "type": "Point", "coordinates": [ -145.530833333333334, 62.520833333333336 ] } },
{ "type": "Feature", "properties": { "stationID_NWS": "ILRA2", "stationID_USGS": "15300300", "riverName": null, "community": null }, "geometry": { "type": "Point", "coordinates": [ -153.844722222222231, 59.758611111111108 ] } },
{ "type": "Feature", "properties": { "stationID_NWS": "KDKA2", "stationID_USGS": "15295700", "riverName": null, "community": null }, "geometry": { "type": "Point", "coordinates": [ -153.161666666666662, 57.694722222222225 ] } },
{ "type": "Feature", "properties": { "stationID_NWS": "KLCA2", "stationID_USGS": "15303900", "riverName": null, "community": null }, "geometry": { "type": "Point", "coordinates": [ -156.210555555555544, 62.051944444444445 ] } },
{ "type": "Feature", "properties": { "stationID_NWS": "KOWA2", "stationID_USGS": "15294080", "riverName": null, "community": null }, "geometry": { "type": "Point", "coordinates": [ -150.538666666666671, 62.13283333333333 ] } },
{ "type": "Feature", "properties": { "stationID_NWS": "KTIA2", "stationID_USGS": "15302200", "riverName": null, "community": null }, "geometry": { "type": "Point", "coordinates": [ -155.5225, 59.793333333333337 ] } },
{ "type": "Feature", "properties": { "stationID_NWS": "KWKA2", "stationID_USGS": "15302812", "riverName": null, "community": null }, "geometry": { "type": "Point", "coordinates": [ -157.804166666666674, 59.415 ] } },
{ "type": "Feature", "properties": { "stationID_NWS": "LHFA2", "stationID_USGS": "15226620", "riverName": null, "community": null }, "geometry": { "type": "Point", "coordinates": [ -145.906111111111102, 61.067083333333336 ] } },
{ "type": "Feature", "properties": { "stationID_NWS": "LSUA2", "stationID_USGS": "15290000", "riverName": null, "community": null }, "geometry": { "type": "Point", "coordinates": [ -149.229722222222222, 61.710277777777776 ] } },
{ "type": "Feature", "properties": { "stationID_NWS": "LWCA2", "stationID_USGS": "15239050", "riverName": null, "community": null }, "geometry": { "type": "Point", "coordinates": [ -150.754166666666663, 59.778333333333336 ] } },
{ "type": "Feature", "properties": { "stationID_NWS": "MATA2", "stationID_USGS": "15284000", "riverName": null, "community": null }, "geometry": { "type": "Point", "coordinates": [ -149.070833333333326, 61.609166666666667 ] } },
{ "type": "Feature", "properties": { "stationID_NWS": "MDBA2", "stationID_USGS": "15214000", "riverName": null, "community": null }, "geometry": { "type": "Point", "coordinates": [ -144.744722222222208, 60.671666666666667 ] } },
{ "type": "Feature", "properties": { "stationID_NWS": "MOOA2", "stationID_USGS": "15283700", "riverName": null, "community": null }, "geometry": { "type": "Point", "coordinates": [ -149.052416666666659, 61.68438888888889 ] } },
{ "type": "Feature", "properties": { "stationID_NWS": "MXYA2", "stationID_USGS": "15209700", "riverName": null, "community": null }, "geometry": { "type": "Point", "coordinates": [ -142.940555555555562, 61.43416666666667 ] } },
{ "type": "Feature", "properties": { "stationID_NWS": "NRDA2", "stationID_USGS": "15302000", "riverName": null, "community": null }, "geometry": { "type": "Point", "coordinates": [ -158.187777777777768, 59.935555555555553 ] } },
{ "type": "Feature", "properties": { "stationID_NWS": "RCBA2", "stationID_USGS": "15297610", "riverName": null, "community": null }, "geometry": { "type": "Point", "coordinates": [ -162.6875, 55.177777777777777 ] } },
{ "type": "Feature", "properties": { "stationID_NWS": "RCTA2", "stationID_USGS": "15297475", "riverName": null, "community": null }, "geometry": { "type": "Point", "coordinates": [ -152.622222222222234, 57.81666666666667 ] } },
{ "type": "Feature", "properties": { "stationID_NWS": "SGLA2", "stationID_USGS": "15225997", "riverName": null, "community": null }, "geometry": { "type": "Point", "coordinates": [ -146.303055555555545, 61.079166666666666 ] } },
{ "type": "Feature", "properties": { "stationID_NWS": "SHIA2", "stationID_USGS": "15276000", "riverName": null, "community": null }, "geometry": { "type": "Point", "coordinates": [ -149.635, 61.225555555555559 ] } },
{ "type": "Feature", "properties": { "stationID_NWS": "SIXA2", "stationID_USGS": "15271000", "riverName": null, "community": null }, "geometry": { "type": "Point", "coordinates": [ -149.425277777777779, 60.820833333333333 ] } },
{ "type": "Feature", "properties": { "stationID_NWS": "SKLA2", "stationID_USGS": "15266110", "riverName": null, "community": null }, "geometry": { "type": "Point", "coordinates": [ -150.598888888888894, 60.466666666666669 ] } },
{ "type": "Feature", "properties": { "stationID_NWS": "SNOA2", "stationID_USGS": "15243900", "riverName": null, "community": null }, "geometry": { "type": "Point", "coordinates": [ -149.343888888888898, 60.295 ] } },
{ "type": "Feature", "properties": { "stationID_NWS": "SUNA2", "stationID_USGS": "15292780", "riverName": null, "community": null }, "geometry": { "type": "Point", "coordinates": [ -150.170416666666654, 62.175361111111108 ] } },
{ "type": "Feature", "properties": { "stationID_NWS": "SXRA2", "stationID_USGS": "15266300", "riverName": null, "community": null }, "geometry": { "type": "Point", "coordinates": [ -151.079444444444448, 60.4775 ] } },
{ "type": "Feature", "properties": { "stationID_NWS": "TRTA2", "stationID_USGS": "15292700", "riverName": null, "community": null }, "geometry": { "type": "Point", "coordinates": [ -150.016944444444448, 62.346944444444446 ] } },
{ "type": "Feature", "properties": { "stationID_NWS": "UNRA2", "stationID_USGS": "15238648", "riverName": null, "community": null }, "geometry": { "type": "Point", "coordinates": [ -150.703333333333347, 59.684444444444445 ] } },
{ "type": "Feature", "properties": { "stationID_NWS": "VGSA2", "stationID_USGS": "15227090", "riverName": null, "community": null }, "geometry": { "type": "Point", "coordinates": [ -146.171583333333331, 61.148888888888891 ] } },
{ "type": "Feature", "properties": { "stationID_NWS": "WLCA2", "stationID_USGS": "15236900", "riverName": null, "community": null }, "geometry": { "type": "Point", "coordinates": [ -148.896666666666675, 60.370555555555555 ] } },
{ "type": "Feature", "properties": { "stationID_NWS": "WLVA2", "stationID_USGS": "15236895", "riverName": null, "community": null }, "geometry": { "type": "Point", "coordinates": [ -148.935, 60.3875 ] } },
{ "type": "Feature", "properties": { "stationID_NWS": "WLWA2", "stationID_USGS": "15294005", "riverName": null, "community": null }, "geometry": { "type": "Point", "coordinates": [ -149.884444444444455, 61.780833333333334 ] } },
{ "type": "Feature", "properties": { "stationID_NWS": "YPSA2", "stationID_USGS": "15565447", "riverName": null, "community": null }, "geometry": { "type": "Point", "coordinates": [ -162.88055555555556, 61.934444444444445 ] } },
{ "type": "Feature", "properties": { "stationID_NWS": "ARGA2", "stationID_USGS": "15905100", "riverName": null, "community": null }, "geometry": { "type": "Point", "coordinates": [ -149.373333333333335, 68.452222222222218 ] } },
{ "type": "Feature", "properties": { "stationID_NWS": "CHFA2", "stationID_USGS": "15514000", "riverName": null, "community": null }, "geometry": { "type": "Point", "coordinates": [ -147.701111111111118, 64.845833333333331 ] } },
{ "type": "Feature", "properties": { "stationID_NWS": "CRHA2", "stationID_USGS": "15493400", "riverName": null, "community": null }, "geometry": { "type": "Point", "coordinates": [ -146.803333333333342, 64.86 ] } },
{ "type": "Feature", "properties": { "stationID_NWS": "CRUA2", "stationID_USGS": "15875000", "riverName": null, "community": null }, "geometry": { "type": "Point", "coordinates": [ -152.122694444444448, 69.3605 ] } },
{ "type": "Feature", "properties": { "stationID_NWS": "DCKA2", "stationID_USGS": "15743850", "riverName": null, "community": null }, "geometry": { "type": "Point", "coordinates": [ -156.908888888888896, 66.946111111111108 ] } },
{ "type": "Feature", "properties": { "stationID_NWS": "ENNA2", "stationID_USGS": "15515500", "riverName": null, "community": null }, "geometry": { "type": "Point", "coordinates": [ -149.094, 64.56494444444445 ] } },
{ "type": "Feature", "properties": { "stationID_NWS": "FCCA2", "stationID_USGS": "15502000", "riverName": null, "community": null }, "geometry": { "type": "Point", "coordinates": [ -147.198333333333323, 65.009722222222223 ] } },
{ "type": "Feature", "properties": { "stationID_NWS": "FMRA2", "stationID_USGS": "15348000", "riverName": null, "community": null }, "geometry": { "type": "Point", "coordinates": [ -141.402222222222235, 64.30916666666667 ] } },
{ "type": "Feature", "properties": { "stationID_NWS": "GBDA2", "stationID_USGS": "15477740", "riverName": null, "community": null }, "geometry": { "type": "Point", "coordinates": [ -144.942222222222227, 64.450555555555553 ] } },
{ "type": "Feature", "properties": { "stationID_NWS": "GLSA2", "stationID_USGS": "15457790", "riverName": null, "community": null }, "geometry": { "type": "Point", "coordinates": [ -148.387855555555547, 65.574 ] } },
{ "type": "Feature", "properties": { "stationID_NWS": "HULA2", "stationID_USGS": "15980000", "riverName": null, "community": null }, "geometry": { "type": "Point", "coordinates": [ -144.198333333333323, 69.703888888888883 ] } },
{ "type": "Feature", "properties": { "stationID_NWS": "KIAA2", "stationID_USGS": "15744500", "riverName": null, "community": null }, "geometry": { "type": "Point", "coordinates": [ -160.130833333333328, 66.973611111111111 ] } },
{ "type": "Feature", "properties": { "stationID_NWS": "KUPA2", "stationID_USGS": "15896000", "riverName": null, "community": null }, "geometry": { "type": "Point", "coordinates": [ -148.959722222222211, 70.281666666666666 ] } },
{ "type": "Feature", "properties": { "stationID_NWS": "MCDA2", "stationID_USGS": "15493700", "riverName": null, "community": null }, "geometry": { "type": "Point", "coordinates": [ -147.227777777777789, 64.80083333333333 ] } },
{ "type": "Feature", "properties": { "stationID_NWS": "MDEA2", "stationID_USGS": "15803000", "riverName": null, "community": null }, "geometry": { "type": "Point", "coordinates": [ -157.3925, 70.495833333333337 ] } },
{ "type": "Feature", "properties": { "stationID_NWS": "MKEA2", "stationID_USGS": "15310002", "riverName": null, "community": null }, "geometry": { "type": "Point", "coordinates": [ -142.528333333333336, 64.034444444444446 ] } },
{ "type": "Feature", "properties": { "stationID_NWS": "MRGA2", "stationID_USGS": "15515060", "riverName": null, "community": null }, "geometry": { "type": "Point", "coordinates": [ -148.725833333333327, 64.00888888888889 ] } },
{ "type": "Feature", "properties": { "stationID_NWS": "NRCA2", "stationID_USGS": "15580095", "riverName": null, "community": null }, "geometry": { "type": "Point", "coordinates": [ -163.67, 64.891944444444448 ] } },
{ "type": "Feature", "properties": { "stationID_NWS": "PHLA2", "stationID_USGS": "15478040", "riverName": null, "community": null }, "geometry": { "type": "Point", "coordinates": [ -145.468055555555566, 63.240277777777777 ] } },
{ "type": "Feature", "properties": { "stationID_NWS": "SALA2", "stationID_USGS": "15484000", "riverName": null, "community": null }, "geometry": { "type": "Point", "coordinates": [ -146.928055555555545, 64.47152777777778 ] } },
{ "type": "Feature", "properties": { "stationID_NWS": "SGRA2", "stationID_USGS": "15908000", "riverName": null, "community": null }, "geometry": { "type": "Point", "coordinates": [ -148.817777777777792, 69.015833333333333 ] } },
{ "type": "Feature", "properties": { "stationID_NWS": "SLAA2", "stationID_USGS": "15564879", "riverName": null, "community": null }, "geometry": { "type": "Point", "coordinates": [ -150.177222222222213, 67.254444444444445 ] } },
{ "type": "Feature", "properties": { "stationID_NWS": "TAFA2", "stationID_USGS": "15485500", "riverName": null, "community": null }, "geometry": { "type": "Point", "coordinates": [ -147.838888888888903, 64.792777777777772 ] } },
{ "type": "Feature", "properties": { "stationID_NWS": "TMDA2", "stationID_USGS": "644255147180200", "riverName": null, "community": null }, "geometry": { "type": "Point", "coordinates": [ -147.300555555555547, 64.715277777777771 ] } },
{ "type": "Feature", "properties": { "stationID_NWS": "TRBA2", "stationID_USGS": "15519100", "riverName": null, "community": null }, "geometry": { "type": "Point", "coordinates": [ -148.628611111111098, 65.465277777777771 ] } },
{ "type": "Feature", "properties": { "stationID_NWS": "UCHA2", "stationID_USGS": "15493000", "riverName": null, "community": null }, "geometry": { "type": "Point", "coordinates": [ -146.361333333333334, 64.901972222222227 ] } },
{ "type": "Feature", "properties": { "stationID_NWS": "WADA2", "stationID_USGS": "15320100", "riverName": null, "community": null }, "geometry": { "type": "Point", "coordinates": [ -141.55361111111111, 64.118333333333339 ] } },
{ "type": "Feature", "properties": { "stationID_NWS": "WULA2", "stationID_USGS": "15747000", "riverName": null, "community": null }, "geometry": { "type": "Point", "coordinates": [ -163.674444444444447, 67.876111111111115 ] } },
{ "type": "Feature", "properties": { "stationID_NWS": "YEAA2", "stationID_USGS": "15356000", "riverName": null, "community": null }, "geometry": { "type": "Point", "coordinates": [ -141.197777777777787, 64.789444444444442 ] } },
{ "type": "Feature", "properties": { "stationID_NWS": "YRBA2", "stationID_USGS": "15453500", "riverName": null, "community": null }, "geometry": { "type": "Point", "coordinates": [ -149.717777777777769, 65.87555555555555 ] } },
{ "type": "Feature", "properties": { "stationID_NWS": "AAKA2", "stationID_USGS": "15055500", "riverName": null, "community": null }, "geometry": { "type": "Point", "coordinates": [ -134.708611111111111, 58.851944444444442 ] } },
{ "type": "Feature", "properties": { "stationID_NWS": "ALEA2", "stationID_USGS": "15129120", "riverName": null, "community": null }, "geometry": { "type": "Point", "coordinates": [ -138.333916666666653, 59.192805555555559 ] } },
{ "type": "Feature", "properties": { "stationID_NWS": "CKTA2", "stationID_USGS": "15056500", "riverName": null, "community": null }, "geometry": { "type": "Point", "coordinates": [ -135.929166666666674, 59.415277777777774 ] } },
{ "type": "Feature", "properties": { "stationID_NWS": "DANA2", "stationID_USGS": "15129300", "riverName": null, "community": null }, "geometry": { "type": "Point", "coordinates": [ -139.0175, 59.4175 ] } },
{ "type": "Feature", "properties": { "stationID_NWS": "FCKA2", "stationID_USGS": "15072000", "riverName": null, "community": null }, "geometry": { "type": "Point", "coordinates": [ -131.193888888888893, 55.391944444444448 ] } },
{ "type": "Feature", "properties": { "stationID_NWS": "GOVA2", "stationID_USGS": "15058700", "riverName": null, "community": null }, "geometry": { "type": "Point", "coordinates": [ -131.698888888888888, 55.342777777777776 ] } },
{ "type": "Feature", "properties": { "stationID_NWS": "HCCA2", "stationID_USGS": "15086225", "riverName": null, "community": null }, "geometry": { "type": "Point", "coordinates": [ -132.930833333333339, 55.908611111111114 ] } },
{ "type": "Feature", "properties": { "stationID_NWS": "IRVA2", "stationID_USGS": "15087700", "riverName": null, "community": null }, "geometry": { "type": "Point", "coordinates": [ -135.314444444444433, 57.053333333333335 ] } },
{ "type": "Feature", "properties": { "stationID_NWS": "ITAA2", "stationID_USGS": "15129280", "riverName": null, "community": null }, "geometry": { "type": "Point", "coordinates": [ -139.04569444444445, 59.302027777777781 ] } },
{ "type": "Feature", "properties": { "stationID_NWS": "LSCA2", "stationID_USGS": "15068040", "riverName": null, "community": null }, "geometry": { "type": "Point", "coordinates": [ -131.522777777777776, 55.519444444444446 ] } },
{ "type": "Feature", "properties": { "stationID_NWS": "MNDA2", "stationID_USGS": "15052500", "riverName": null, "community": null }, "geometry": { "type": "Point", "coordinates": [ -134.572777777777787, 58.429722222222225 ] } },
{ "type": "Feature", "properties": { "stationID_NWS": "OTCA2", "stationID_USGS": "15085697", "riverName": null, "community": null }, "geometry": { "type": "Point", "coordinates": [ -132.857083333333321, 55.467972222222222 ] } },
{ "type": "Feature", "properties": { "stationID_NWS": "SAMA2", "stationID_USGS": "15057596", "riverName": null, "community": null }, "geometry": { "type": "Point", "coordinates": [ -135.74, 58.445 ] } },
{ "type": "Feature", "properties": { "stationID_NWS": "SCKA2", "stationID_USGS": "15081497", "riverName": null, "community": null }, "geometry": { "type": "Point", "coordinates": [ -133.108611111111117, 55.801388888888887 ] } },
{ "type": "Feature", "properties": { "stationID_NWS": "SCSA2", "stationID_USGS": "15088000", "riverName": null, "community": null }, "geometry": { "type": "Point", "coordinates": [ -135.227777777777789, 57.051388888888887 ] } },
{ "type": "Feature", "properties": { "stationID_NWS": "SLMA2", "stationID_USGS": "15008000", "riverName": null, "community": null }, "geometry": { "type": "Point", "coordinates": [ -130.065277777777766, 56.026111111111113 ] } },
{ "type": "Feature", "properties": { "stationID_NWS": "SRYA2", "stationID_USGS": "15129500", "riverName": null, "community": null }, "geometry": { "type": "Point", "coordinates": [ -139.4925, 59.586666666666666 ] } },
{ "type": "Feature", "properties": { "stationID_NWS": "STKA2", "stationID_USGS": "15024800", "riverName": null, "community": null }, "geometry": { "type": "Point", "coordinates": [ -132.130277777777792, 56.708055555555553 ] } },
{ "type": "Feature", "properties": { "stationID_NWS": "TKUA2", "stationID_USGS": "15041200", "riverName": null, "community": null }, "geometry": { "type": "Point", "coordinates": [ -133.7, 58.538611111111109 ] } },
{ "type": "Feature", "properties": { "stationID_NWS": "TYAA2", "stationID_USGS": "15056210", "riverName": null, "community": null }, "geometry": { "type": "Point", "coordinates": [ -135.344444444444434, 59.511944444444445 ] } },
{ "type": "Feature", "properties": { "stationID_NWS": "TYWA2", "stationID_USGS": "15019990", "riverName": null, "community": null }, "geometry": { "type": "Point", "coordinates": [ -131.506666666666661, 56.2 ] } },
{ "type": "Feature", "properties": { "stationID_NWS": "URWA2", "stationID_USGS": "15015595", "riverName": null, "community": null }, "geometry": { "type": "Point", "coordinates": [ -130.880277777777792, 56.240555555555552 ] } },
{ "type": "Feature", "properties": { "stationID_NWS": " AAKA2 ", "stationID_USGS": null, "riverName": null, "community": null }, "geometry": { "type": "Point", "coordinates": [ -134.708611111110002, 58.851944444444001 ] } },
{ "type": "Feature", "properties": { "stationID_NWS": " AAKA2 ", "stationID_USGS": null, "riverName": null, "community": null }, "geometry": { "type": "Point", "coordinates": [ -134.708611111110002, 58.851944444444001 ] } },
{ "type": "Feature", "properties": { "stationID_NWS": " AKLA2 ", "stationID_USGS": null, "riverName": null, "community": null }, "geometry": { "type": "Point", "coordinates": [ -134.6369, 58.385 ] } },
{ "type": "Feature", "properties": { "stationID_NWS": " AKLA2 ", "stationID_USGS": null, "riverName": null, "community": null }, "geometry": { "type": "Point", "coordinates": [ -134.63694444443999, 58.385 ] } },
{ "type": "Feature", "properties": { "stationID_NWS": " AKLA2 ", "stationID_USGS": null, "riverName": null, "community": null }, "geometry": { "type": "Point", "coordinates": [ -134.634722222220006, 58.383055555555998 ] } },
{ "type": "Feature", "properties": { "stationID_NWS": " ALAQ9 ", "stationID_USGS": null, "riverName": null, "community": null }, "geometry": { "type": "Point", "coordinates": [ -137.4111, 61.5903 ] } },
{ "type": "Feature", "properties": { "stationID_NWS": " ALAQ9 ", "stationID_USGS": null, "riverName": null, "community": null }, "geometry": { "type": "Point", "coordinates": [ -137.411111111109989, 61.590277777777999 ] } },
{ "type": "Feature", "properties": { "stationID_NWS": " ALEA2 ", "stationID_USGS": null, "riverName": null, "community": null }, "geometry": { "type": "Point", "coordinates": [ -138.422777777779999, 59.190555555556003 ] } },
{ "type": "Feature", "properties": { "stationID_NWS": " ALEA2 ", "stationID_USGS": null, "riverName": null, "community": null }, "geometry": { "type": "Point", "coordinates": [ -138.326666666670008, 59.190555555556003 ] } },
{ "type": "Feature", "properties": { "stationID_NWS": " ALEA2 ", "stationID_USGS": null, "riverName": null, "community": null }, "geometry": { "type": "Point", "coordinates": [ -138.326666666670008, 59.190555555556003 ] } },
{ "type": "Feature", "properties": { "stationID_NWS": " ALLA2 ", "stationID_USGS": null, "riverName": null, "community": null }, "geometry": { "type": "Point", "coordinates": [ -152.4, 66.34 ] } },
{ "type": "Feature", "properties": { "stationID_NWS": " ALLA2 ", "stationID_USGS": null, "riverName": null, "community": null }, "geometry": { "type": "Point", "coordinates": [ -152.39, 66.34 ] } },
{ "type": "Feature", "properties": { "stationID_NWS": " ALLA2 ", "stationID_USGS": null, "riverName": null, "community": null }, "geometry": { "type": "Point", "coordinates": [ -152.39, 66.34 ] } },
{ "type": "Feature", "properties": { "stationID_NWS": " ALLA2 ", "stationID_USGS": null, "riverName": null, "community": null }, "geometry": { "type": "Point", "coordinates": [ -152.6425, 66.5653 ] } },
{ "type": "Feature", "properties": { "stationID_NWS": " ALLA2 ", "stationID_USGS": null, "riverName": null, "community": null }, "geometry": { "type": "Point", "coordinates": [ -152.6425, 66.565277777777993 ] } },
{ "type": "Feature", "properties": { "stationID_NWS": " ALSQ9 ", "stationID_USGS": null, "riverName": null, "community": null }, "geometry": { "type": "Point", "coordinates": [ -137.9742, 60.1192 ] } },
{ "type": "Feature", "properties": { "stationID_NWS": " ALSQ9 ", "stationID_USGS": null, "riverName": null, "community": null }, "geometry": { "type": "Point", "coordinates": [ -137.974166666667003, 60.1191666666667 ] } },
{ "type": "Feature", "properties": { "stationID_NWS": " ALSQ9 ", "stationID_USGS": null, "riverName": null, "community": null }, "geometry": { "type": "Point", "coordinates": [ -137.974166666669987, 60.119166666666999 ] } },
{ "type": "Feature", "properties": { "stationID_NWS": " ALWQ9 ", "stationID_USGS": null, "riverName": null, "community": null }, "geometry": { "type": "Point", "coordinates": [ -136.9981, 61.1981 ] } },
{ "type": "Feature", "properties": { "stationID_NWS": " ALWQ9 ", "stationID_USGS": null, "riverName": null, "community": null }, "geometry": { "type": "Point", "coordinates": [ -136.998055555555993, 61.198055555555598 ] } },
{ "type": "Feature", "properties": { "stationID_NWS": " APBA2 ", "stationID_USGS": null, "riverName": null, "community": null }, "geometry": { "type": "Point", "coordinates": [ -151.8364, 59.7722 ] } },
{ "type": "Feature", "properties": { "stationID_NWS": " APBA2 ", "stationID_USGS": null, "riverName": null, "community": null }, "geometry": { "type": "Point", "coordinates": [ -151.836388888890014, 59.772222222221998 ] } },
{ "type": "Feature", "properties": { "stationID_NWS": " APTA2 ", "stationID_USGS": null, "riverName": null, "community": null }, "geometry": { "type": "Point", "coordinates": [ -151.7531, 59.7472 ] } },
{ "type": "Feature", "properties": { "stationID_NWS": " APTA2 ", "stationID_USGS": null, "riverName": null, "community": null }, "geometry": { "type": "Point", "coordinates": [ -151.753055555555989, 59.747222222222199 ] } },
{ "type": "Feature", "properties": { "stationID_NWS": " ARAQ9 ", "stationID_USGS": null, "riverName": null, "community": null }, "geometry": { "type": "Point", "coordinates": [ -136.99, 61.1844 ] } },
{ "type": "Feature", "properties": { "stationID_NWS": " ARAQ9 ", "stationID_USGS": null, "riverName": null, "community": null }, "geometry": { "type": "Point", "coordinates": [ -136.99, 61.184444444443997 ] } },
{ "type": "Feature", "properties": { "stationID_NWS": " ARAQ9 ", "stationID_USGS": null, "riverName": null, "community": null }, "geometry": { "type": "Point", "coordinates": [ -136.99, 61.184444444443997 ] } },
{ "type": "Feature", "properties": { "stationID_NWS": " ARAQ9 ", "stationID_USGS": null, "riverName": null, "community": null }, "geometry": { "type": "Point", "coordinates": [ -136.99, 61.184444444443997 ] } },
{ "type": "Feature", "properties": { "stationID_NWS": " ARGA2 ", "stationID_USGS": null, "riverName": null, "community": null }, "geometry": { "type": "Point", "coordinates": [ -149.368333333330014, 68.452777777777996 ] } },
{ "type": "Feature", "properties": { "stationID_NWS": " ARGA2 ", "stationID_USGS": null, "riverName": null, "community": null }, "geometry": { "type": "Point", "coordinates": [ -149.368333333330014, 68.452777777777996 ] } },
{ "type": "Feature", "properties": { "stationID_NWS": " ARGA2 ", "stationID_USGS": null, "riverName": null, "community": null }, "geometry": { "type": "Point", "coordinates": [ -149.368333333330014, 68.452777777777996 ] } },
{ "type": "Feature", "properties": { "stationID_NWS": " BATA2 ", "stationID_USGS": null, "riverName": null, "community": null }, "geometry": { "type": "Point", "coordinates": [ -150.983888888889993, 59.755555555556001 ] } },
{ "type": "Feature", "properties": { "stationID_NWS": " BATA2 ", "stationID_USGS": null, "riverName": null, "community": null }, "geometry": { "type": "Point", "coordinates": [ -150.953333333329994, 59.755555555556001 ] } },
{ "type": "Feature", "properties": { "stationID_NWS": " BATA2 ", "stationID_USGS": null, "riverName": null, "community": null }, "geometry": { "type": "Point", "coordinates": [ -150.953055555560013, 59.762222222222 ] } },
{ "type": "Feature", "properties": { "stationID_NWS": " BATA2 ", "stationID_USGS": null, "riverName": null, "community": null }, "geometry": { "type": "Point", "coordinates": [ -150.98111111111001, 59.762222222222 ] } },
{ "type": "Feature", "properties": { "stationID_NWS": " BATA2 ", "stationID_USGS": null, "riverName": null, "community": null }, "geometry": { "type": "Point", "coordinates": [ -150.953055555560013, 59.762222222222 ] } },
{ "type": "Feature", "properties": { "stationID_NWS": " BCTA2 ", "stationID_USGS": null, "riverName": null, "community": null }, "geometry": { "type": "Point", "coordinates": [ -145.7125, 65.3925 ] } },
{ "type": "Feature", "properties": { "stationID_NWS": " BCTA2 ", "stationID_USGS": null, "riverName": null, "community": null }, "geometry": { "type": "Point", "coordinates": [ -145.7125, 65.3925 ] } },
{ "type": "Feature", "properties": { "stationID_NWS": " BCTA2 ", "stationID_USGS": null, "riverName": null, "community": null }, "geometry": { "type": "Point", "coordinates": [ -145.825555555559987, 65.3925 ] } },
{ "type": "Feature", "properties": { "stationID_NWS": " BCTA2 ", "stationID_USGS": null, "riverName": null, "community": null }, "geometry": { "type": "Point", "coordinates": [ -145.7125, 65.3925 ] } },
{ "type": "Feature", "properties": { "stationID_NWS": " BELQ9 ", "stationID_USGS": null, "riverName": null, "community": null }, "geometry": { "type": "Point", "coordinates": [ -134.7075, 60.1639 ] } },
{ "type": "Feature", "properties": { "stationID_NWS": " BELQ9 ", "stationID_USGS": null, "riverName": null, "community": null }, "geometry": { "type": "Point", "coordinates": [ -134.7075, 60.163888888888899 ] } },
{ "type": "Feature", "properties": { "stationID_NWS": " BETA2 ", "stationID_USGS": null, "riverName": null, "community": null }, "geometry": { "type": "Point", "coordinates": [ -161.45, 60.48 ] } },
{ "type": "Feature", "properties": { "stationID_NWS": " BETA2 ", "stationID_USGS": null, "riverName": null, "community": null }, "geometry": { "type": "Point", "coordinates": [ -161.75, 60.8 ] } },
{ "type": "Feature", "properties": { "stationID_NWS": " BETA2 ", "stationID_USGS": null, "riverName": null, "community": null }, "geometry": { "type": "Point", "coordinates": [ -161.75, 60.8 ] } },
{ "type": "Feature", "properties": { "stationID_NWS": " BETA2 ", "stationID_USGS": null, "riverName": null, "community": null }, "geometry": { "type": "Point", "coordinates": [ -161.745555555560003, 60.793333333333003 ] } },
{ "type": "Feature", "properties": { "stationID_NWS": " BGCQ9 ", "stationID_USGS": null, "riverName": null, "community": null }, "geometry": { "type": "Point", "coordinates": [ -129.7028, 60.1583 ] } },
{ "type": "Feature", "properties": { "stationID_NWS": " BGCQ9 ", "stationID_USGS": null, "riverName": null, "community": null }, "geometry": { "type": "Point", "coordinates": [ -129.70277777777801, 60.158333333333303 ] } },
{ "type": "Feature", "properties": { "stationID_NWS": " BGCQ9 ", "stationID_USGS": null, "riverName": null, "community": null }, "geometry": { "type": "Point", "coordinates": [ -129.70277777778, 60.158333333332997 ] } },
{ "type": "Feature", "properties": { "stationID_NWS": " BGCQ9 ", "stationID_USGS": null, "riverName": null, "community": null }, "geometry": { "type": "Point", "coordinates": [ -129.70277777778, 60.158333333332997 ] } },
{ "type": "Feature", "properties": { "stationID_NWS": " BGCQ9 ", "stationID_USGS": null, "riverName": null, "community": null }, "geometry": { "type": "Point", "coordinates": [ -129.728333333329999, 60.158333333332997 ] } },
{ "type": "Feature", "properties": { "stationID_NWS": " BGCQ9 ", "stationID_USGS": null, "riverName": null, "community": null }, "geometry": { "type": "Point", "coordinates": [ -129.70277777778, 60.158333333332997 ] } },
{ "type": "Feature", "properties": { "stationID_NWS": " BGDA2 ", "stationID_USGS": null, "riverName": null, "community": null }, "geometry": { "type": "Point", "coordinates": [ -145.5, 64.08 ] } },
{ "type": "Feature", "properties": { "stationID_NWS": " BGDA2 ", "stationID_USGS": null, "riverName": null, "community": null }, "geometry": { "type": "Point", "coordinates": [ -145.51, 64.09 ] } },
{ "type": "Feature", "properties": { "stationID_NWS": " BGDA2 ", "stationID_USGS": null, "riverName": null, "community": null }, "geometry": { "type": "Point", "coordinates": [ -145.845, 64.1564 ] } },
{ "type": "Feature", "properties": { "stationID_NWS": " BGDA2 ", "stationID_USGS": null, "riverName": null, "community": null }, "geometry": { "type": "Point", "coordinates": [ -145.845, 64.156388888888998 ] } },
{ "type": "Feature", "properties": { "stationID_NWS": " BGDA2 ", "stationID_USGS": null, "riverName": null, "community": null }, "geometry": { "type": "Point", "coordinates": [ -145.85138888889, 64.156944444443994 ] } },
{ "type": "Feature", "properties": { "stationID_NWS": " BGMQ9 ", "stationID_USGS": null, "riverName": null, "community": null }, "geometry": { "type": "Point", "coordinates": [ -137.0161, 62.5686 ] } },
{ "type": "Feature", "properties": { "stationID_NWS": " BGMQ9 ", "stationID_USGS": null, "riverName": null, "community": null }, "geometry": { "type": "Point", "coordinates": [ -137.016111111110007, 62.568611111110997 ] } },
{ "type": "Feature", "properties": { "stationID_NWS": " BRMA2 ", "stationID_USGS": null, "riverName": null, "community": null }, "geometry": { "type": "Point", "coordinates": [ -150.7542, 59.7783 ] } },
{ "type": "Feature", "properties": { "stationID_NWS": " BRMA2 ", "stationID_USGS": null, "riverName": null, "community": null }, "geometry": { "type": "Point", "coordinates": [ -150.754166666669988, 59.778333333333002 ] } },
{ "type": "Feature", "properties": { "stationID_NWS": " BRMA2 ", "stationID_USGS": null, "riverName": null, "community": null }, "geometry": { "type": "Point", "coordinates": [ -150.792222222220005, 59.778333333333002 ] } },
{ "type": "Feature", "properties": { "stationID_NWS": " BRMA2 ", "stationID_USGS": null, "riverName": null, "community": null }, "geometry": { "type": "Point", "coordinates": [ -150.754166666669988, 59.778333333333002 ] } },
{ "type": "Feature", "properties": { "stationID_NWS": " BRNA2 ", "stationID_USGS": null, "riverName": null, "community": null }, "geometry": { "type": "Point", "coordinates": [ -150.86333333332999, 59.798333333332998 ] } },
{ "type": "Feature", "properties": { "stationID_NWS": " BRNA2 ", "stationID_USGS": null, "riverName": null, "community": null }, "geometry": { "type": "Point", "coordinates": [ -150.86333333332999, 59.798333333332998 ] } },
{ "type": "Feature", "properties": { "stationID_NWS": " BRRA2 ", "stationID_USGS": null, "riverName": null, "community": null }, "geometry": { "type": "Point", "coordinates": [ -150.8506, 59.7583 ] } },
{ "type": "Feature", "properties": { "stationID_NWS": " BRRA2 ", "stationID_USGS": null, "riverName": null, "community": null }, "geometry": { "type": "Point", "coordinates": [ -150.850555555559993, 59.758333333332999 ] } },
{ "type": "Feature", "properties": { "stationID_NWS": " BRTA2 ", "stationID_USGS": null, "riverName": null, "community": null }, "geometry": { "type": "Point", "coordinates": [ -150.8828, 59.8017 ] } },
{ "type": "Feature", "properties": { "stationID_NWS": " BRTA2 ", "stationID_USGS": null, "riverName": null, "community": null }, "geometry": { "type": "Point", "coordinates": [ -150.882777777780007, 59.801666666667003 ] } },
{ "type": "Feature", "properties": { "stationID_NWS": " BRTA2 ", "stationID_USGS": null, "riverName": null, "community": null }, "geometry": { "type": "Point", "coordinates": [ -150.882777777780007, 59.801666666667003 ] } },
{ "type": "Feature", "properties": { "stationID_NWS": " BRTA2 ", "stationID_USGS": null, "riverName": null, "community": null }, "geometry": { "type": "Point", "coordinates": [ -151.028333333330011, 59.801666666667003 ] } },
{ "type": "Feature", "properties": { "stationID_NWS": " BRTA2 ", "stationID_USGS": null, "riverName": null, "community": null }, "geometry": { "type": "Point", "coordinates": [ -150.882777777780007, 59.801666666667003 ] } },
{ "type": "Feature", "properties": { "stationID_NWS": " BRUA2 ", "stationID_USGS": null, "riverName": null, "community": null }, "geometry": { "type": "Point", "coordinates": [ -150.7025, 59.7006 ] } },
{ "type": "Feature", "properties": { "stationID_NWS": " BRUA2 ", "stationID_USGS": null, "riverName": null, "community": null }, "geometry": { "type": "Point", "coordinates": [ -150.7025, 59.700555555556001 ] } },
{ "type": "Feature", "properties": { "stationID_NWS": " BRUA2 ", "stationID_USGS": null, "riverName": null, "community": null }, "geometry": { "type": "Point", "coordinates": [ -150.7025, 59.700555555556001 ] } },
{ "type": "Feature", "properties": { "stationID_NWS": " BRUA2 ", "stationID_USGS": null, "riverName": null, "community": null }, "geometry": { "type": "Point", "coordinates": [ -150.725555555559993, 59.700555555556001 ] } },
{ "type": "Feature", "properties": { "stationID_NWS": " BRUA2 ", "stationID_USGS": null, "riverName": null, "community": null }, "geometry": { "type": "Point", "coordinates": [ -150.7025, 59.700555555556001 ] } },
{ "type": "Feature", "properties": { "stationID_NWS": " BRUA2 ", "stationID_USGS": null, "riverName": null, "community": null }, "geometry": { "type": "Point", "coordinates": [ -150.725555555559993, 59.700555555556001 ] } },
{ "type": "Feature", "properties": { "stationID_NWS": " BRUA2 ", "stationID_USGS": null, "riverName": null, "community": null }, "geometry": { "type": "Point", "coordinates": [ -150.7025, 59.700555555556001 ] } },
{ "type": "Feature", "properties": { "stationID_NWS": " BTTA2 ", "stationID_USGS": null, "riverName": null, "community": null }, "geometry": { "type": "Point", "coordinates": [ -151.5, 66.9167 ] } },
{ "type": "Feature", "properties": { "stationID_NWS": " BTTA2 ", "stationID_USGS": null, "riverName": null, "community": null }, "geometry": { "type": "Point", "coordinates": [ -151.5, 66.9166666666667 ] } },
{ "type": "Feature", "properties": { "stationID_NWS": " BTTA2 ", "stationID_USGS": null, "riverName": null, "community": null }, "geometry": { "type": "Point", "coordinates": [ -151.508611111110014, 66.926111111110998 ] } },
{ "type": "Feature", "properties": { "stationID_NWS": " BTTA2 ", "stationID_USGS": null, "riverName": null, "community": null }, "geometry": { "type": "Point", "coordinates": [ -151.508611111110014, 66.926111111110998 ] } },
{ "type": "Feature", "properties": { "stationID_NWS": " BTTA2 ", "stationID_USGS": null, "riverName": null, "community": null }, "geometry": { "type": "Point", "coordinates": [ -151.586666666669998, 66.926111111110998 ] } },
{ "type": "Feature", "properties": { "stationID_NWS": " BVRQ9 ", "stationID_USGS": null, "riverName": null, "community": null }, "geometry": { "type": "Point", "coordinates": [ -134.1333, 65.0167 ] } },
{ "type": "Feature", "properties": { "stationID_NWS": " BVRQ9 ", "stationID_USGS": null, "riverName": null, "community": null }, "geometry": { "type": "Point", "coordinates": [ -134.13333333333, 65.016666666667007 ] } },
{ "type": "Feature", "properties": { "stationID_NWS": " BVRQ9 ", "stationID_USGS": null, "riverName": null, "community": null }, "geometry": { "type": "Point", "coordinates": [ -134.139166666670008, 64.015 ] } },
{ "type": "Feature", "properties": { "stationID_NWS": " CCSA2 ", "stationID_USGS": null, "riverName": null, "community": null }, "geometry": { "type": "Point", "coordinates": [ -149.47, 61.1 ] } },
{ "type": "Feature", "properties": { "stationID_NWS": " CCSA2 ", "stationID_USGS": null, "riverName": null, "community": null }, "geometry": { "type": "Point", "coordinates": [ -149.9222, 61.1381 ] } },
{ "type": "Feature", "properties": { "stationID_NWS": " CCSA2 ", "stationID_USGS": null, "riverName": null, "community": null }, "geometry": { "type": "Point", "coordinates": [ -149.923333333329992, 61.139444444444003 ] } },
{ "type": "Feature", "properties": { "stationID_NWS": " CCSA2 ", "stationID_USGS": null, "riverName": null, "community": null }, "geometry": { "type": "Point", "coordinates": [ -149.923333333329992, 61.139444444444003 ] } },
{ "type": "Feature", "properties": { "stationID_NWS": " CCSA2 ", "stationID_USGS": null, "riverName": null, "community": null }, "geometry": { "type": "Point", "coordinates": [ -149.983888888889993, 61.139444444444003 ] } },
{ "type": "Feature", "properties": { "stationID_NWS": " CCSA2 ", "stationID_USGS": null, "riverName": null, "community": null }, "geometry": { "type": "Point", "coordinates": [ -149.923333333329992, 61.139444444444003 ] } },
{ "type": "Feature", "properties": { "stationID_NWS": " CCTA2 ", "stationID_USGS": null, "riverName": null, "community": null }, "geometry": { "type": "Point", "coordinates": [ -144.432222222222009, 61.514444444444401 ] } },
{ "type": "Feature", "properties": { "stationID_NWS": " CCTA2 ", "stationID_USGS": null, "riverName": null, "community": null }, "geometry": { "type": "Point", "coordinates": [ -144.432222222219991, 61.514444444444003 ] } },
{ "type": "Feature", "properties": { "stationID_NWS": " CCTA2 ", "stationID_USGS": null, "riverName": null, "community": null }, "geometry": { "type": "Point", "coordinates": [ -144.522777777779993, 61.525555555555997 ] } },
{ "type": "Feature", "properties": { "stationID_NWS": " CCTA2 ", "stationID_USGS": null, "riverName": null, "community": null }, "geometry": { "type": "Point", "coordinates": [ -144.412222222220009, 61.525555555555997 ] } },
{ "type": "Feature", "properties": { "stationID_NWS": " CCVA2 ", "stationID_USGS": null, "riverName": null, "community": null }, "geometry": { "type": "Point", "coordinates": [ -150.4094, 70.4322 ] } },
{ "type": "Feature", "properties": { "stationID_NWS": " CCVA2 ", "stationID_USGS": null, "riverName": null, "community": null }, "geometry": { "type": "Point", "coordinates": [ -150.409444444439998, 70.432222222221995 ] } },
{ "type": "Feature", "properties": { "stationID_NWS": " CHFA2 ", "stationID_USGS": null, "riverName": null, "community": null }, "geometry": { "type": "Point", "coordinates": [ -147.7011, 64.8458 ] } },
{ "type": "Feature", "properties": { "stationID_NWS": " CHFA2 ", "stationID_USGS": null, "riverName": null, "community": null }, "geometry": { "type": "Point", "coordinates": [ -147.701111111110009, 64.845833333333005 ] } },
{ "type": "Feature", "properties": { "stationID_NWS": " CHFA2 ", "stationID_USGS": null, "riverName": null, "community": null }, "geometry": { "type": "Point", "coordinates": [ -147.701111111110009, 64.845833333333005 ] } },
{ "type": "Feature", "properties": { "stationID_NWS": " CHLA2 ", "stationID_USGS": null, "riverName": null, "community": null }, "geometry": { "type": "Point", "coordinates": [ -147.15, 64.53 ] } },
{ "type": "Feature", "properties": { "stationID_NWS": " CHLA2 ", "stationID_USGS": null, "riverName": null, "community": null }, "geometry": { "type": "Point", "coordinates": [ -147.15, 64.53 ] } },
{ "type": "Feature", "properties": { "stationID_NWS": " CHLA2 ", "stationID_USGS": null, "riverName": null, "community": null }, "geometry": { "type": "Point", "coordinates": [ -147.2472, 64.8861 ] } },
{ "type": "Feature", "properties": { "stationID_NWS": " CHLA2 ", "stationID_USGS": null, "riverName": null, "community": null }, "geometry": { "type": "Point", "coordinates": [ -147.247222222219989, 64.886111111111006 ] } },
{ "type": "Feature", "properties": { "stationID_NWS": " CHLA2 ", "stationID_USGS": null, "riverName": null, "community": null }, "geometry": { "type": "Point", "coordinates": [ -147.249444444440002, 64.885555555555996 ] } },
{ "type": "Feature", "properties": { "stationID_NWS": " CHLA2 ", "stationID_USGS": null, "riverName": null, "community": null }, "geometry": { "type": "Point", "coordinates": [ -147.395, 64.885555555555996 ] } },
{ "type": "Feature", "properties": { "stationID_NWS": " CHLA2 ", "stationID_USGS": null, "riverName": null, "community": null }, "geometry": { "type": "Point", "coordinates": [ -147.247222, 64.885555555555996 ] } },
{ "type": "Feature", "properties": { "stationID_NWS": " CHRA2 ", "stationID_USGS": null, "riverName": null, "community": null }, "geometry": { "type": "Point", "coordinates": [ -149.8333, 61.2053 ] } },
{ "type": "Feature", "properties": { "stationID_NWS": " CHRA2 ", "stationID_USGS": null, "riverName": null, "community": null }, "geometry": { "type": "Point", "coordinates": [ -149.895277777779995, 61.205277777778001 ] } },
{ "type": "Feature", "properties": { "stationID_NWS": " CIRA2 ", "stationID_USGS": null, "riverName": null, "community": null }, "geometry": { "type": "Point", "coordinates": [ -144.04, 65.5 ] } },
{ "type": "Feature", "properties": { "stationID_NWS": " CIRA2 ", "stationID_USGS": null, "riverName": null, "community": null }, "geometry": { "type": "Point", "coordinates": [ -144.0614, 65.8272 ] } },
{ "type": "Feature", "properties": { "stationID_NWS": " CIRA2 ", "stationID_USGS": null, "riverName": null, "community": null }, "geometry": { "type": "Point", "coordinates": [ -144.061388888889013, 65.827222222222204 ] } },
{ "type": "Feature", "properties": { "stationID_NWS": " CJXA2 ", "stationID_USGS": null, "riverName": null, "community": null }, "geometry": { "type": "Point", "coordinates": [ -158.1008, 61.8711 ] } },
{ "type": "Feature", "properties": { "stationID_NWS": " CJXA2 ", "stationID_USGS": null, "riverName": null, "community": null }, "geometry": { "type": "Point", "coordinates": [ -158.111388888889991, 61.869444444443999 ] } },
{ "type": "Feature", "properties": { "stationID_NWS": " CKDA2 ", "stationID_USGS": null, "riverName": null, "community": null }, "geometry": { "type": "Point", "coordinates": [ -158.123611111109994, 61.871666666666997 ] } },
{ "type": "Feature", "properties": { "stationID_NWS": " CKDA2 ", "stationID_USGS": null, "riverName": null, "community": null }, "geometry": { "type": "Point", "coordinates": [ -158.119722222219991, 61.871388888889001 ] } },
{ "type": "Feature", "properties": { "stationID_NWS": " CKDA2 ", "stationID_USGS": null, "riverName": null, "community": null }, "geometry": { "type": "Point", "coordinates": [ -158.154444444440003, 61.89 ] } },
{ "type": "Feature", "properties": { "stationID_NWS": " CKTA2 ", "stationID_USGS": null, "riverName": null, "community": null }, "geometry": { "type": "Point", "coordinates": [ -135.8928, 59.4314 ] } },
{ "type": "Feature", "properties": { "stationID_NWS": " CKTA2 ", "stationID_USGS": null, "riverName": null, "community": null }, "geometry": { "type": "Point", "coordinates": [ -135.892777777778008, 59.431388888888897 ] } },
{ "type": "Feature", "properties": { "stationID_NWS": " CKTA2 ", "stationID_USGS": null, "riverName": null, "community": null }, "geometry": { "type": "Point", "coordinates": [ -135.9325, 59.415555555555997 ] } },
{ "type": "Feature", "properties": { "stationID_NWS": " CKTA2 ", "stationID_USGS": null, "riverName": null, "community": null }, "geometry": { "type": "Point", "coordinates": [ -135.92916666667, 59.415277777778002 ] } },
{ "type": "Feature", "properties": { "stationID_NWS": " CKTA2 ", "stationID_USGS": null, "riverName": null, "community": null }, "geometry": { "type": "Point", "coordinates": [ -135.92916666667, 59.415277777778002 ] } },
{ "type": "Feature", "properties": { "stationID_NWS": " CKTA2 ", "stationID_USGS": null, "riverName": null, "community": null }, "geometry": { "type": "Point", "coordinates": [ -135.933055555560003, 59.415 ] } },
{ "type": "Feature", "properties": { "stationID_NWS": " COCA2 ", "stationID_USGS": null, "riverName": null, "community": null }, "geometry": { "type": "Point", "coordinates": [ -149.875, 60.475 ] } },
{ "type": "Feature", "properties": { "stationID_NWS": " COCA2 ", "stationID_USGS": null, "riverName": null, "community": null }, "geometry": { "type": "Point", "coordinates": [ -149.880555555559994, 60.480555555556002 ] } },
{ "type": "Feature", "properties": { "stationID_NWS": " COCA2 ", "stationID_USGS": null, "riverName": null, "community": null }, "geometry": { "type": "Point", "coordinates": [ -149.880277777780009, 60.483888888888998 ] } },
{ "type": "Feature", "properties": { "stationID_NWS": " COCA2 ", "stationID_USGS": null, "riverName": null, "community": null }, "geometry": { "type": "Point", "coordinates": [ -149.882711, 60.4799795 ] } },
{ "type": "Feature", "properties": { "stationID_NWS": " COOA2 ", "stationID_USGS": null, "riverName": null, "community": null }, "geometry": { "type": "Point", "coordinates": [ -149.8078, 60.4928 ] } },
{ "type": "Feature", "properties": { "stationID_NWS": " COOA2 ", "stationID_USGS": null, "riverName": null, "community": null }, "geometry": { "type": "Point", "coordinates": [ -149.807777777779989, 60.492777777778002 ] } },
{ "type": "Feature", "properties": { "stationID_NWS": " COOA2 ", "stationID_USGS": null, "riverName": null, "community": null }, "geometry": { "type": "Point", "coordinates": [ -149.807777777779989, 60.492777777778002 ] } },
{ "type": "Feature", "properties": { "stationID_NWS": " COOA2 ", "stationID_USGS": null, "riverName": null, "community": null }, "geometry": { "type": "Point", "coordinates": [ -149.878333333330005, 60.492777777778002 ] } },
{ "type": "Feature", "properties": { "stationID_NWS": " COOA2 ", "stationID_USGS": null, "riverName": null, "community": null }, "geometry": { "type": "Point", "coordinates": [ -149.807777777779989, 60.492777777778002 ] } },
{ "type": "Feature", "properties": { "stationID_NWS": " CRHA2 ", "stationID_USGS": null, "riverName": null, "community": null }, "geometry": { "type": "Point", "coordinates": [ -146.8033, 64.86 ] } },
{ "type": "Feature", "properties": { "stationID_NWS": " CRHA2 ", "stationID_USGS": null, "riverName": null, "community": null }, "geometry": { "type": "Point", "coordinates": [ -146.803333333333001, 64.86 ] } },
{ "type": "Feature", "properties": { "stationID_NWS": " CRHA2 ", "stationID_USGS": null, "riverName": null, "community": null }, "geometry": { "type": "Point", "coordinates": [ -146.803333333329988, 64.86 ] } },
{ "type": "Feature", "properties": { "stationID_NWS": " CRNA2 ", "stationID_USGS": null, "riverName": null, "community": null }, "geometry": { "type": "Point", "coordinates": [ -141.8047, 63.0064 ] } },
{ "type": "Feature", "properties": { "stationID_NWS": " CRNA2 ", "stationID_USGS": null, "riverName": null, "community": null }, "geometry": { "type": "Point", "coordinates": [ -141.804722222222011, 63.0063888888889 ] } },
{ "type": "Feature", "properties": { "stationID_NWS": " CRNA2 ", "stationID_USGS": null, "riverName": null, "community": null }, "geometry": { "type": "Point", "coordinates": [ -141.806944444440006, 63.006388888888999 ] } },
{ "type": "Feature", "properties": { "stationID_NWS": " CRSA2 ", "stationID_USGS": null, "riverName": null, "community": null }, "geometry": { "type": "Point", "coordinates": [ -147.2542, 65.1906 ] } },
{ "type": "Feature", "properties": { "stationID_NWS": " CRSA2 ", "stationID_USGS": null, "riverName": null, "community": null }, "geometry": { "type": "Point", "coordinates": [ -147.254166666669988, 65.190555555556003 ] } },
{ "type": "Feature", "properties": { "stationID_NWS": " CRUA2 ", "stationID_USGS": null, "riverName": null, "community": null }, "geometry": { "type": "Point", "coordinates": [ -152.0945, 69.3764 ] } },
{ "type": "Feature", "properties": { "stationID_NWS": " CRUA2 ", "stationID_USGS": null, "riverName": null, "community": null }, "geometry": { "type": "Point", "coordinates": [ -152.121666666669995, 69.360555555556004 ] } },
{ "type": "Feature", "properties": { "stationID_NWS": " CRUA2 ", "stationID_USGS": null, "riverName": null, "community": null }, "geometry": { "type": "Point", "coordinates": [ -152.121666666669995, 69.360555555556004 ] } },
{ "type": "Feature", "properties": { "stationID_NWS": " CRUA2 ", "stationID_USGS": null, "riverName": null, "community": null }, "geometry": { "type": "Point", "coordinates": [ -152.121666666669995, 69.360555555556004 ] } },
{ "type": "Feature", "properties": { "stationID_NWS": " CRWA2 ", "stationID_USGS": null, "riverName": null, "community": null }, "geometry": { "type": "Point", "coordinates": [ -158.7053, 56.2622 ] } },
{ "type": "Feature", "properties": { "stationID_NWS": " CRWA2 ", "stationID_USGS": null, "riverName": null, "community": null }, "geometry": { "type": "Point", "coordinates": [ -158.705277777778008, 56.262222222222199 ] } },
{ "type": "Feature", "properties": { "stationID_NWS": " CRWA2 ", "stationID_USGS": null, "riverName": null, "community": null }, "geometry": { "type": "Point", "coordinates": [ -158.753333333330005, 56.262222222222 ] } },
{ "type": "Feature", "properties": { "stationID_NWS": " CSRA2 ", "stationID_USGS": null, "riverName": null, "community": null }, "geometry": { "type": "Point", "coordinates": [ -149.43, 61.09 ] } },
{ "type": "Feature", "properties": { "stationID_NWS": " CSRA2 ", "stationID_USGS": null, "riverName": null, "community": null }, "geometry": { "type": "Point", "coordinates": [ -149.72, 61.1478 ] } },
{ "type": "Feature", "properties": { "stationID_NWS": " CSRA2 ", "stationID_USGS": null, "riverName": null, "community": null }, "geometry": { "type": "Point", "coordinates": [ -149.729444444439991, 61.148888888888997 ] } },
{ "type": "Feature", "properties": { "stationID_NWS": " CSRA2 ", "stationID_USGS": null, "riverName": null, "community": null }, "geometry": { "type": "Point", "coordinates": [ -149.729444444439991, 61.148888888888997 ] } },
{ "type": "Feature", "properties": { "stationID_NWS": " DANA2 ", "stationID_USGS": null, "riverName": null, "community": null }, "geometry": { "type": "Point", "coordinates": [ -139.0175, 59.4175 ] } },
{ "type": "Feature", "properties": { "stationID_NWS": " DCKA2 ", "stationID_USGS": null, "riverName": null, "community": null }, "geometry": { "type": "Point", "coordinates": [ -156.9089, 66.9461 ] } },
{ "type": "Feature", "properties": { "stationID_NWS": " DCKA2 ", "stationID_USGS": null, "riverName": null, "community": null }, "geometry": { "type": "Point", "coordinates": [ -156.908888888890004, 66.946111111110994 ] } },
{ "type": "Feature", "properties": { "stationID_NWS": " DCKA2 ", "stationID_USGS": null, "riverName": null, "community": null }, "geometry": { "type": "Point", "coordinates": [ -156.908888888890004, 66.946111111110994 ] } },
{ "type": "Feature", "properties": { "stationID_NWS": " DELA2 ", "stationID_USGS": null, "riverName": null, "community": null }, "geometry": { "type": "Point", "coordinates": [ -145.8142, 63.2031 ] } },
{ "type": "Feature", "properties": { "stationID_NWS": " DELA2 ", "stationID_USGS": null, "riverName": null, "community": null }, "geometry": { "type": "Point", "coordinates": [ -145.814166666667006, 63.203055555555601 ] } },
{ "type": "Feature", "properties": { "stationID_NWS": " DEPA2 ", "stationID_USGS": null, "riverName": null, "community": null }, "geometry": { "type": "Point", "coordinates": [ -151.6832, 60.0297 ] } },
{ "type": "Feature", "properties": { "stationID_NWS": " DEZQ9 ", "stationID_USGS": null, "riverName": null, "community": null }, "geometry": { "type": "Point", "coordinates": [ -137.50833333333, 60.748055555556 ] } },
{ "type": "Feature", "properties": { "stationID_NWS": " EGGA2 ", "stationID_USGS": null, "riverName": null, "community": null }, "geometry": { "type": "Point", "coordinates": [ -156.845, 58.039722222222203 ] } },
{ "type": "Feature", "properties": { "stationID_NWS": " EGGA2 ", "stationID_USGS": null, "riverName": null, "community": null }, "geometry": { "type": "Point", "coordinates": [ -156.845, 58.039722222221997 ] } },
{ "type": "Feature", "properties": { "stationID_NWS": " ENNA2 ", "stationID_USGS": null, "riverName": null, "community": null }, "geometry": { "type": "Point", "coordinates": [ -149.0917, 64.5653 ] } },
{ "type": "Feature", "properties": { "stationID_NWS": " ENNA2 ", "stationID_USGS": null, "riverName": null, "community": null }, "geometry": { "type": "Point", "coordinates": [ -149.091666666669994, 64.565277777777993 ] } },
{ "type": "Feature", "properties": { "stationID_NWS": " ERBA2 ", "stationID_USGS": null, "riverName": null, "community": null }, "geometry": { "type": "Point", "coordinates": [ -149.5744, 61.3108 ] } },
{ "type": "Feature", "properties": { "stationID_NWS": " ERBA2 ", "stationID_USGS": null, "riverName": null, "community": null }, "geometry": { "type": "Point", "coordinates": [ -149.57444444443999, 61.310833333333001 ] } },
{ "type": "Feature", "properties": { "stationID_NWS": " ERBA2 ", "stationID_USGS": null, "riverName": null, "community": null }, "geometry": { "type": "Point", "coordinates": [ -149.576944444439988, 61.310277777777998 ] } },
{ "type": "Feature", "properties": { "stationID_NWS": " ERLA2 ", "stationID_USGS": null, "riverName": null, "community": null }, "geometry": { "type": "Point", "coordinates": [ -149.6878, 61.3109 ] } },
{ "type": "Feature", "properties": { "stationID_NWS": " ERLA2 ", "stationID_USGS": null, "riverName": null, "community": null }, "geometry": { "type": "Point", "coordinates": [ -149.687777777780013, 61.310833333333001 ] } },
{ "type": "Feature", "properties": { "stationID_NWS": " ERLA2 ", "stationID_USGS": null, "riverName": null, "community": null }, "geometry": { "type": "Point", "coordinates": [ -149.687777777780013, 61.310833333333001 ] } },
{ "type": "Feature", "properties": { "stationID_NWS": " EXTA2 ", "stationID_USGS": null, "riverName": null, "community": null }, "geometry": { "type": "Point", "coordinates": [ -149.625, 60.1867 ] } },
{ "type": "Feature", "properties": { "stationID_NWS": " EXTA2 ", "stationID_USGS": null, "riverName": null, "community": null }, "geometry": { "type": "Point", "coordinates": [ -149.625, 60.186666666667001 ] } },
{ "type": "Feature", "properties": { "stationID_NWS": " EYAA2 ", "stationID_USGS": null, "riverName": null, "community": null }, "geometry": { "type": "Point", "coordinates": [ -145.644444, 60.531111 ] } },
{ "type": "Feature", "properties": { "stationID_NWS": " EYAA2 ", "stationID_USGS": null, "riverName": null, "community": null }, "geometry": { "type": "Point", "coordinates": [ -145.644444444440012, 60.531111111111002 ] } },
{ "type": "Feature", "properties": { "stationID_NWS": " EYLA2 ", "stationID_USGS": null, "riverName": null, "community": null }, "geometry": { "type": "Point", "coordinates": [ -145.691388888890003, 60.551388888889001 ] } },
{ "type": "Feature", "properties": { "stationID_NWS": " FCCA2 ", "stationID_USGS": null, "riverName": null, "community": null }, "geometry": { "type": "Point", "coordinates": [ -147.198333333329998, 65.009722222221995 ] } },
{ "type": "Feature", "properties": { "stationID_NWS": " FCCA2 ", "stationID_USGS": null, "riverName": null, "community": null }, "geometry": { "type": "Point", "coordinates": [ -147.198333333329998, 65.009722222221995 ] } },
{ "type": "Feature", "properties": { "stationID_NWS": " FCCA2 ", "stationID_USGS": null, "riverName": null, "community": null }, "geometry": { "type": "Point", "coordinates": [ -147.198333333329998, 65.009722222221995 ] } },
{ "type": "Feature", "properties": { "stationID_NWS": " FCCA2 ", "stationID_USGS": null, "riverName": null, "community": null }, "geometry": { "type": "Point", "coordinates": [ -147.198333333329998, 65.009722222221995 ] } },
{ "type": "Feature", "properties": { "stationID_NWS": " FCKA2 ", "stationID_USGS": null, "riverName": null, "community": null }, "geometry": { "type": "Point", "coordinates": [ -131.1939, 55.3919 ] } },
{ "type": "Feature", "properties": { "stationID_NWS": " FCKA2 ", "stationID_USGS": null, "riverName": null, "community": null }, "geometry": { "type": "Point", "coordinates": [ -131.193888888890001, 55.391944444444 ] } },
{ "type": "Feature", "properties": { "stationID_NWS": " FLSA2 ", "stationID_USGS": null, "riverName": null, "community": null }, "geometry": { "type": "Point", "coordinates": [ -132.9222, 56.6822 ] } },
{ "type": "Feature", "properties": { "stationID_NWS": " FLSA2 ", "stationID_USGS": null, "riverName": null, "community": null }, "geometry": { "type": "Point", "coordinates": [ -132.92222222222, 56.682222222222002 ] } },
{ "type": "Feature", "properties": { "stationID_NWS": " FLSA2 ", "stationID_USGS": null, "riverName": null, "community": null }, "geometry": { "type": "Point", "coordinates": [ -132.9235, 56.6817 ] } },
{ "type": "Feature", "properties": { "stationID_NWS": " FMKA2 ", "stationID_USGS": null, "riverName": null, "community": null }, "geometry": { "type": "Point", "coordinates": [ -141.6306, 64.0761 ] } },
{ "type": "Feature", "properties": { "stationID_NWS": " FMKA2 ", "stationID_USGS": null, "riverName": null, "community": null }, "geometry": { "type": "Point", "coordinates": [ -141.630555555559994, 64.076111111111004 ] } },
{ "type": "Feature", "properties": { "stationID_NWS": " FMMA2 ", "stationID_USGS": null, "riverName": null, "community": null }, "geometry": { "type": "Point", "coordinates": [ -141.9972, 64.0661 ] } },
{ "type": "Feature", "properties": { "stationID_NWS": " FMMA2 ", "stationID_USGS": null, "riverName": null, "community": null }, "geometry": { "type": "Point", "coordinates": [ -141.997222222219989, 64.066111111110999 ] } },
{ "type": "Feature", "properties": { "stationID_NWS": " FMRA2 ", "stationID_USGS": null, "riverName": null, "community": null }, "geometry": { "type": "Point", "coordinates": [ -141.3133, 64.2797 ] } },
{ "type": "Feature", "properties": { "stationID_NWS": " FMRA2 ", "stationID_USGS": null, "riverName": null, "community": null }, "geometry": { "type": "Point", "coordinates": [ -141.313333333330007, 64.279722222222006 ] } },
{ "type": "Feature", "properties": { "stationID_NWS": " FMRA2 ", "stationID_USGS": null, "riverName": null, "community": null }, "geometry": { "type": "Point", "coordinates": [ -141.40222222221999, 64.309166666666997 ] } },
{ "type": "Feature", "properties": { "stationID_NWS": " FMRA2 ", "stationID_USGS": null, "riverName": null, "community": null }, "geometry": { "type": "Point", "coordinates": [ -141.313333333330007, 64.279722222222006 ] } },
{ "type": "Feature", "properties": { "stationID_NWS": " FMRA2 ", "stationID_USGS": null, "riverName": null, "community": null }, "geometry": { "type": "Point", "coordinates": [ -141.40222222221999, 64.309166666666997 ] } },
{ "type": "Feature", "properties": { "stationID_NWS": " FMRA2 ", "stationID_USGS": null, "riverName": null, "community": null }, "geometry": { "type": "Point", "coordinates": [ -141.40222222221999, 64.309166666666997 ] } },
{ "type": "Feature", "properties": { "stationID_NWS": " FMSA2 ", "stationID_USGS": null, "riverName": null, "community": null }, "geometry": { "type": "Point", "coordinates": [ -141.7672, 64.0578 ] } },
{ "type": "Feature", "properties": { "stationID_NWS": " FMSA2 ", "stationID_USGS": null, "riverName": null, "community": null }, "geometry": { "type": "Point", "coordinates": [ -141.767222222219999, 64.057777777778 ] } },
{ "type": "Feature", "properties": { "stationID_NWS": " FMWA2 ", "stationID_USGS": null, "riverName": null, "community": null }, "geometry": { "type": "Point", "coordinates": [ -142.2322, 63.8894 ] } },
{ "type": "Feature", "properties": { "stationID_NWS": " FMWA2 ", "stationID_USGS": null, "riverName": null, "community": null }, "geometry": { "type": "Point", "coordinates": [ -142.232222222220003, 63.889444444444003 ] } },
{ "type": "Feature", "properties": { "stationID_NWS": " GAKA2 ", "stationID_USGS": null, "riverName": null, "community": null }, "geometry": { "type": "Point", "coordinates": [ -145.18, 62.18 ] } },
{ "type": "Feature", "properties": { "stationID_NWS": " GAKA2 ", "stationID_USGS": null, "riverName": null, "community": null }, "geometry": { "type": "Point", "coordinates": [ -145.1667, 62.3083 ] } },
{ "type": "Feature", "properties": { "stationID_NWS": " GAKA2 ", "stationID_USGS": null, "riverName": null, "community": null }, "geometry": { "type": "Point", "coordinates": [ -145.166666666670011, 62.308333333333003 ] } },
{ "type": "Feature", "properties": { "stationID_NWS": " GAKA2 ", "stationID_USGS": null, "riverName": null, "community": null }, "geometry": { "type": "Point", "coordinates": [ -145.306944444440006, 62.301388888889001 ] } },
{ "type": "Feature", "properties": { "stationID_NWS": " GAKA2 ", "stationID_USGS": null, "riverName": null, "community": null }, "geometry": { "type": "Point", "coordinates": [ -145.372777777779987, 62.301388888889001 ] } },
{ "type": "Feature", "properties": { "stationID_NWS": " GAKA2 ", "stationID_USGS": null, "riverName": null, "community": null }, "geometry": { "type": "Point", "coordinates": [ -145.3073, 62.30142 ] } },
{ "type": "Feature", "properties": { "stationID_NWS": " GBDA2 ", "stationID_USGS": null, "riverName": null, "community": null }, "geometry": { "type": "Point", "coordinates": [ -144.9422, 64.4506 ] } },
{ "type": "Feature", "properties": { "stationID_NWS": " GBDA2 ", "stationID_USGS": null, "riverName": null, "community": null }, "geometry": { "type": "Point", "coordinates": [ -144.942222222220011, 64.450555555555994 ] } },
{ "type": "Feature", "properties": { "stationID_NWS": " GCGA2 ", "stationID_USGS": null, "riverName": null, "community": null }, "geometry": { "type": "Point", "coordinates": [ -149.1317, 60.9625 ] } },
{ "type": "Feature", "properties": { "stationID_NWS": " GCGA2 ", "stationID_USGS": null, "riverName": null, "community": null }, "geometry": { "type": "Point", "coordinates": [ -149.131666666669986, 60.9625 ] } },
{ "type": "Feature", "properties": { "stationID_NWS": " GCGA2 ", "stationID_USGS": null, "riverName": null, "community": null }, "geometry": { "type": "Point", "coordinates": [ -149.131388888890001, 60.961666666667 ] } },
{ "type": "Feature", "properties": { "stationID_NWS": " GCOA2 ", "stationID_USGS": null, "riverName": null, "community": null }, "geometry": { "type": "Point", "coordinates": [ -145.37861111110999, 60.533333333332997 ] } },
{ "type": "Feature", "properties": { "stationID_NWS": " GCOA2 ", "stationID_USGS": null, "riverName": null, "community": null }, "geometry": { "type": "Point", "coordinates": [ -145.37861111110999, 60.533333333332997 ] } },
{ "type": "Feature", "properties": { "stationID_NWS": " GCOA2 ", "stationID_USGS": null, "riverName": null, "community": null }, "geometry": { "type": "Point", "coordinates": [ -145.380614799999989, 60.5327973 ] } },
{ "type": "Feature", "properties": { "stationID_NWS": " GCSA2 ", "stationID_USGS": null, "riverName": null, "community": null }, "geometry": { "type": "Point", "coordinates": [ -149.6911, 62.7678 ] } },
{ "type": "Feature", "properties": { "stationID_NWS": " GCSA2 ", "stationID_USGS": null, "riverName": null, "community": null }, "geometry": { "type": "Point", "coordinates": [ -149.69111111110999, 62.767777777778001 ] } },
{ "type": "Feature", "properties": { "stationID_NWS": " GICQ9 ", "stationID_USGS": null, "riverName": null, "community": null }, "geometry": { "type": "Point", "coordinates": [ -136.9872, 61.1967 ] } },
{ "type": "Feature", "properties": { "stationID_NWS": " GICQ9 ", "stationID_USGS": null, "riverName": null, "community": null }, "geometry": { "type": "Point", "coordinates": [ -136.987222222219998, 61.196666666666999 ] } },
{ "type": "Feature", "properties": { "stationID_NWS": " GLSA2 ", "stationID_USGS": null, "riverName": null, "community": null }, "geometry": { "type": "Point", "coordinates": [ -148.388611111110009, 65.575833333332994 ] } },
{ "type": "Feature", "properties": { "stationID_NWS": " GLSA2 ", "stationID_USGS": null, "riverName": null, "community": null }, "geometry": { "type": "Point", "coordinates": [ -148.388611111110009, 65.575833333332994 ] } },
{ "type": "Feature", "properties": { "stationID_NWS": " GLSA2 ", "stationID_USGS": null, "riverName": null, "community": null }, "geometry": { "type": "Point", "coordinates": [ -148.388611111110009, 65.575833333332994 ] } },
{ "type": "Feature", "properties": { "stationID_NWS": " GOVA2 ", "stationID_USGS": null, "riverName": null, "community": null }, "geometry": { "type": "Point", "coordinates": [ -131.696944444439993, 55.347222222222001 ] } },
{ "type": "Feature", "properties": { "stationID_NWS": " GOVA2 ", "stationID_USGS": null, "riverName": null, "community": null }, "geometry": { "type": "Point", "coordinates": [ -131.696944444439993, 55.347222222222001 ] } },
{ "type": "Feature", "properties": { "stationID_NWS": " GOVA2 ", "stationID_USGS": null, "riverName": null, "community": null }, "geometry": { "type": "Point", "coordinates": [ -131.698888888889996, 55.342777777777997 ] } },
{ "type": "Feature", "properties": { "stationID_NWS": " GPOA2 ", "stationID_USGS": null, "riverName": null, "community": null }, "geometry": { "type": "Point", "coordinates": [ -145.6167, 63.6917 ] } },
{ "type": "Feature", "properties": { "stationID_NWS": " GPOA2 ", "stationID_USGS": null, "riverName": null, "community": null }, "geometry": { "type": "Point", "coordinates": [ -145.61666666667, 62.858333333333 ] } },
{ "type": "Feature", "properties": { "stationID_NWS": " GROA2 ", "stationID_USGS": null, "riverName": null, "community": null }, "geometry": { "type": "Point", "coordinates": [ -149.3697, 60.2047 ] } },
{ "type": "Feature", "properties": { "stationID_NWS": " GROA2 ", "stationID_USGS": null, "riverName": null, "community": null }, "geometry": { "type": "Point", "coordinates": [ -149.37333333333001, 60.198333333332997 ] } },
{ "type": "Feature", "properties": { "stationID_NWS": " GRSA2 ", "stationID_USGS": null, "riverName": null, "community": null }, "geometry": { "type": "Point", "coordinates": [ -145.5308, 62.5208 ] } },
{ "type": "Feature", "properties": { "stationID_NWS": " GRSA2 ", "stationID_USGS": null, "riverName": null, "community": null }, "geometry": { "type": "Point", "coordinates": [ -145.530833333330008, 62.520833333333002 ] } },
{ "type": "Feature", "properties": { "stationID_NWS": " GULA2 ", "stationID_USGS": null, "riverName": null, "community": null }, "geometry": { "type": "Point", "coordinates": [ -145.23, 62.16 ] } },
{ "type": "Feature", "properties": { "stationID_NWS": " GULA2 ", "stationID_USGS": null, "riverName": null, "community": null }, "geometry": { "type": "Point", "coordinates": [ -145.3806, 62.2689 ] } },
{ "type": "Feature", "properties": { "stationID_NWS": " GULA2 ", "stationID_USGS": null, "riverName": null, "community": null }, "geometry": { "type": "Point", "coordinates": [ -145.380555555559994, 62.268888888889002 ] } },
{ "type": "Feature", "properties": { "stationID_NWS": " GYRA2 ", "stationID_USGS": null, "riverName": null, "community": null }, "geometry": { "type": "Point", "coordinates": [ -156.56, 64.44 ] } },
{ "type": "Feature", "properties": { "stationID_NWS": " GYRA2 ", "stationID_USGS": null, "riverName": null, "community": null }, "geometry": { "type": "Point", "coordinates": [ -156.9344, 64.7367 ] } },
{ "type": "Feature", "properties": { "stationID_NWS": " GYRA2 ", "stationID_USGS": null, "riverName": null, "community": null }, "geometry": { "type": "Point", "coordinates": [ -156.900833333332997, 64.7361111111111 ] } },
{ "type": "Feature", "properties": { "stationID_NWS": " GYRA2 ", "stationID_USGS": null, "riverName": null, "community": null }, "geometry": { "type": "Point", "coordinates": [ -156.900833, 64.736111 ] } },
{ "type": "Feature", "properties": { "stationID_NWS": " GYRA2 ", "stationID_USGS": null, "riverName": null, "community": null }, "geometry": { "type": "Point", "coordinates": [ -156.934444444444011, 64.736666666666693 ] } },
{ "type": "Feature", "properties": { "stationID_NWS": " HBRA2 ", "stationID_USGS": null, "riverName": null, "community": null }, "geometry": { "type": "Point", "coordinates": [ -134.795, 58.523888888888898 ] } },
{ "type": "Feature", "properties": { "stationID_NWS": " HCCA2 ", "stationID_USGS": null, "riverName": null, "community": null }, "geometry": { "type": "Point", "coordinates": [ -132.9308, 55.9086 ] } },
{ "type": "Feature", "properties": { "stationID_NWS": " HNRA2 ", "stationID_USGS": null, "riverName": null, "community": null }, "geometry": { "type": "Point", "coordinates": [ -148.58, 63.51 ] } },
{ "type": "Feature", "properties": { "stationID_NWS": " HNRA2 ", "stationID_USGS": null, "riverName": null, "community": null }, "geometry": { "type": "Point", "coordinates": [ -148.57, 63.51 ] } },
{ "type": "Feature", "properties": { "stationID_NWS": " HNRA2 ", "stationID_USGS": null, "riverName": null, "community": null }, "geometry": { "type": "Point", "coordinates": [ -148.9436, 63.8453 ] } },
{ "type": "Feature", "properties": { "stationID_NWS": " HNRA2 ", "stationID_USGS": null, "riverName": null, "community": null }, "geometry": { "type": "Point", "coordinates": [ -148.955555555560011, 63.854166666666998 ] } },
{ "type": "Feature", "properties": { "stationID_NWS": " HULA2 ", "stationID_USGS": null, "riverName": null, "community": null }, "geometry": { "type": "Point", "coordinates": [ -144.19, 69.711388888889005 ] } },
{ "type": "Feature", "properties": { "stationID_NWS": " HULA2 ", "stationID_USGS": null, "riverName": null, "community": null }, "geometry": { "type": "Point", "coordinates": [ -144.19, 69.711388888889005 ] } },
{ "type": "Feature", "properties": { "stationID_NWS": " HULA2 ", "stationID_USGS": null, "riverName": null, "community": null }, "geometry": { "type": "Point", "coordinates": [ -144.19, 69.711388888889005 ] } },
{ "type": "Feature", "properties": { "stationID_NWS": " ICDA2 ", "stationID_USGS": null, "riverName": null, "community": null }, "geometry": { "type": "Point", "coordinates": [ -149.5848, 63.6088 ] } },
{ "type": "Feature", "properties": { "stationID_NWS": " IKPA2 ", "stationID_USGS": null, "riverName": null, "community": null }, "geometry": { "type": "Point", "coordinates": [ -154.6692, 69.7667 ] } },
{ "type": "Feature", "properties": { "stationID_NWS": " IKPA2 ", "stationID_USGS": null, "riverName": null, "community": null }, "geometry": { "type": "Point", "coordinates": [ -154.661388888890002, 69.766944444443993 ] } },
{ "type": "Feature", "properties": { "stationID_NWS": " IKPA2 ", "stationID_USGS": null, "riverName": null, "community": null }, "geometry": { "type": "Point", "coordinates": [ -154.661388888890002, 69.766944444443993 ] } },
{ "type": "Feature", "properties": { "stationID_NWS": " IKPA2 ", "stationID_USGS": null, "riverName": null, "community": null }, "geometry": { "type": "Point", "coordinates": [ -154.661388888890002, 69.766944444443993 ] } },
{ "type": "Feature", "properties": { "stationID_NWS": " ILRA2 ", "stationID_USGS": null, "riverName": null, "community": null }, "geometry": { "type": "Point", "coordinates": [ -153.8447, 59.7586 ] } },
{ "type": "Feature", "properties": { "stationID_NWS": " ILRA2 ", "stationID_USGS": null, "riverName": null, "community": null }, "geometry": { "type": "Point", "coordinates": [ -153.844722222220014, 59.758611111111001 ] } },
{ "type": "Feature", "properties": { "stationID_NWS": " IRVA2 ", "stationID_USGS": null, "riverName": null, "community": null }, "geometry": { "type": "Point", "coordinates": [ -135.3144, 57.0533 ] } },
{ "type": "Feature", "properties": { "stationID_NWS": " IRVA2 ", "stationID_USGS": null, "riverName": null, "community": null }, "geometry": { "type": "Point", "coordinates": [ -135.314444444439999, 57.053333333333001 ] } },
{ "type": "Feature", "properties": { "stationID_NWS": " IRVA2 ", "stationID_USGS": null, "riverName": null, "community": null }, "geometry": { "type": "Point", "coordinates": [ -135.317777777780009, 57.052777777777997 ] } },
{ "type": "Feature", "properties": { "stationID_NWS": " IRVA2 ", "stationID_USGS": null, "riverName": null, "community": null }, "geometry": { "type": "Point", "coordinates": [ -135.328333333329994, 57.052777777777997 ] } },
{ "type": "Feature", "properties": { "stationID_NWS": " IRVA2 ", "stationID_USGS": null, "riverName": null, "community": null }, "geometry": { "type": "Point", "coordinates": [ -135.314444444445002, 57.053333333333299 ] } },
{ "type": "Feature", "properties": { "stationID_NWS": " ISKQ2 ", "stationID_USGS": null, "riverName": null, "community": null }, "geometry": { "type": "Point", "coordinates": [ -131.673611111110006, 56.738888888889001 ] } },
{ "type": "Feature", "properties": { "stationID_NWS": " ISKQ2 ", "stationID_USGS": null, "riverName": null, "community": null }, "geometry": { "type": "Point", "coordinates": [ -131.673611111110006, 56.738888888889001 ] } },
{ "type": "Feature", "properties": { "stationID_NWS": " ISKQ2 ", "stationID_USGS": null, "riverName": null, "community": null }, "geometry": { "type": "Point", "coordinates": [ -131.673611111110006, 56.738888888889001 ] } },
{ "type": "Feature", "properties": { "stationID_NWS": " ISKQ2 ", "stationID_USGS": null, "riverName": null, "community": null }, "geometry": { "type": "Point", "coordinates": [ -131.736666666670004, 56.738888888889001 ] } },
{ "type": "Feature", "properties": { "stationID_NWS": " ISKQ2 ", "stationID_USGS": null, "riverName": null, "community": null }, "geometry": { "type": "Point", "coordinates": [ -131.736666666670004, 56.738888888889001 ] } },
{ "type": "Feature", "properties": { "stationID_NWS": " ISKQ2 ", "stationID_USGS": null, "riverName": null, "community": null }, "geometry": { "type": "Point", "coordinates": [ -131.673611111100001, 56.738888888889001 ] } },
{ "type": "Feature", "properties": { "stationID_NWS": " ITAA2 ", "stationID_USGS": null, "riverName": null, "community": null }, "geometry": { "type": "Point", "coordinates": [ -139.04569, 59.302202 ] } },
{ "type": "Feature", "properties": { "stationID_NWS": " JDYA2 ", "stationID_USGS": null, "riverName": null, "community": null }, "geometry": { "type": "Point", "coordinates": [ -151.834722222222013, 70.220555555555606 ] } },
{ "type": "Feature", "properties": { "stationID_NWS": " JDYA2 ", "stationID_USGS": null, "riverName": null, "community": null }, "geometry": { "type": "Point", "coordinates": [ -151.834722222219995, 70.220555555556004 ] } },
{ "type": "Feature", "properties": { "stationID_NWS": " JRDA2 ", "stationID_USGS": null, "riverName": null, "community": null }, "geometry": { "type": "Point", "coordinates": [ -134.579722222219999, 58.363888888889001 ] } },
{ "type": "Feature", "properties": { "stationID_NWS": " JRDA2 ", "stationID_USGS": null, "riverName": null, "community": null }, "geometry": { "type": "Point", "coordinates": [ -134.579722222219999, 58.363888888889001 ] } },
{ "type": "Feature", "properties": { "stationID_NWS": " KBJA2 ", "stationID_USGS": null, "riverName": null, "community": null }, "geometry": { "type": "Point", "coordinates": [ -151.680833333330014, 66.908055555556004 ] } },
{ "type": "Feature", "properties": { "stationID_NWS": " KBJA2 ", "stationID_USGS": null, "riverName": null, "community": null }, "geometry": { "type": "Point", "coordinates": [ -151.680833333330014, 66.908055555556004 ] } },
{ "type": "Feature", "properties": { "stationID_NWS": " KDKA2 ", "stationID_USGS": null, "riverName": null, "community": null }, "geometry": { "type": "Point", "coordinates": [ -153.1617, 57.6947 ] } },
{ "type": "Feature", "properties": { "stationID_NWS": " KDKA2 ", "stationID_USGS": null, "riverName": null, "community": null }, "geometry": { "type": "Point", "coordinates": [ -153.161666666669987, 57.694722222221998 ] } },
{ "type": "Feature", "properties": { "stationID_NWS": " KDKA2 ", "stationID_USGS": null, "riverName": null, "community": null }, "geometry": { "type": "Point", "coordinates": [ -153.267222222219999, 57.694722222221998 ] } },
{ "type": "Feature", "properties": { "stationID_NWS": " KEYA2 ", "stationID_USGS": null, "riverName": null, "community": null }, "geometry": { "type": "Point", "coordinates": [ -150.35, 60.28 ] } },
{ "type": "Feature", "properties": { "stationID_NWS": " KEYA2 ", "stationID_USGS": null, "riverName": null, "community": null }, "geometry": { "type": "Point", "coordinates": [ -150.37, 60.29 ] } },
{ "type": "Feature", "properties": { "stationID_NWS": " KEYA2 ", "stationID_USGS": null, "riverName": null, "community": null }, "geometry": { "type": "Point", "coordinates": [ -150.6, 60.5278 ] } },
{ "type": "Feature", "properties": { "stationID_NWS": " KEYA2 ", "stationID_USGS": null, "riverName": null, "community": null }, "geometry": { "type": "Point", "coordinates": [ -150.6, 60.527777777777999 ] } },
{ "type": "Feature", "properties": { "stationID_NWS": " KEYA2 ", "stationID_USGS": null, "riverName": null, "community": null }, "geometry": { "type": "Point", "coordinates": [ -150.626111111109992, 60.481388888889001 ] } },
{ "type": "Feature", "properties": { "stationID_NWS": " KEYA2 ", "stationID_USGS": null, "riverName": null, "community": null }, "geometry": { "type": "Point", "coordinates": [ -150.626111111109992, 60.481388888889001 ] } },
{ "type": "Feature", "properties": { "stationID_NWS": " KIAA2 ", "stationID_USGS": null, "riverName": null, "community": null }, "geometry": { "type": "Point", "coordinates": [ -160.1308, 66.9736 ] } },
{ "type": "Feature", "properties": { "stationID_NWS": " KIAA2 ", "stationID_USGS": null, "riverName": null, "community": null }, "geometry": { "type": "Point", "coordinates": [ -160.130833333330003, 66.973611111110998 ] } },
{ "type": "Feature", "properties": { "stationID_NWS": " KLCA2 ", "stationID_USGS": null, "riverName": null, "community": null }, "geometry": { "type": "Point", "coordinates": [ -156.2117, 62.0475 ] } },
{ "type": "Feature", "properties": { "stationID_NWS": " KLCA2 ", "stationID_USGS": null, "riverName": null, "community": null }, "geometry": { "type": "Point", "coordinates": [ -156.210555555560006, 62.051944444443997 ] } },
{ "type": "Feature", "properties": { "stationID_NWS": " KLNQ9 ", "stationID_USGS": null, "riverName": null, "community": null }, "geometry": { "type": "Point", "coordinates": [ -139.4078, 64.0428 ] } },
{ "type": "Feature", "properties": { "stationID_NWS": " KLNQ9 ", "stationID_USGS": null, "riverName": null, "community": null }, "geometry": { "type": "Point", "coordinates": [ -139.407777777780012, 64.042777777777999 ] } },
{ "type": "Feature", "properties": { "stationID_NWS": " KLUA2 ", "stationID_USGS": null, "riverName": null, "community": null }, "geometry": { "type": "Point", "coordinates": [ -145.3064, 61.9528 ] } },
{ "type": "Feature", "properties": { "stationID_NWS": " KLUA2 ", "stationID_USGS": null, "riverName": null, "community": null }, "geometry": { "type": "Point", "coordinates": [ -145.306388888890012, 61.952777777778003 ] } },
{ "type": "Feature", "properties": { "stationID_NWS": " KLUA2 ", "stationID_USGS": null, "riverName": null, "community": null }, "geometry": { "type": "Point", "coordinates": [ -145.306944444440006, 61.952222222221998 ] } },
{ "type": "Feature", "properties": { "stationID_NWS": " KNKA2 ", "stationID_USGS": null, "riverName": null, "community": null }, "geometry": { "type": "Point", "coordinates": [ -149.030556, 61.505 ] } },
{ "type": "Feature", "properties": { "stationID_NWS": " KNKA2 ", "stationID_USGS": null, "riverName": null, "community": null }, "geometry": { "type": "Point", "coordinates": [ -149.030555555559999, 61.505 ] } },
{ "type": "Feature", "properties": { "stationID_NWS": " KNKA2 ", "stationID_USGS": null, "riverName": null, "community": null }, "geometry": { "type": "Point", "coordinates": [ -149.030555555559999, 61.505 ] } },
{ "type": "Feature", "properties": { "stationID_NWS": " KOWA2 ", "stationID_USGS": null, "riverName": null, "community": null }, "geometry": { "type": "Point", "coordinates": [ -150.4389, 62.1289 ] } },
{ "type": "Feature", "properties": { "stationID_NWS": " KOWA2 ", "stationID_USGS": null, "riverName": null, "community": null }, "geometry": { "type": "Point", "coordinates": [ -150.438888888890006, 62.128888888889001 ] } },
{ "type": "Feature", "properties": { "stationID_NWS": " KPHA2 ", "stationID_USGS": null, "riverName": null, "community": null }, "geometry": { "type": "Point", "coordinates": [ -131.633611111110014, 55.344444444444001 ] } },
{ "type": "Feature", "properties": { "stationID_NWS": " KPHA2 ", "stationID_USGS": null, "riverName": null, "community": null }, "geometry": { "type": "Point", "coordinates": [ -131.633611111110014, 55.344444444444001 ] } },
{ "type": "Feature", "properties": { "stationID_NWS": " KRKA2 ", "stationID_USGS": null, "riverName": null, "community": null }, "geometry": { "type": "Point", "coordinates": [ -150.6656, 60.5003 ] } },
{ "type": "Feature", "properties": { "stationID_NWS": " KRKA2 ", "stationID_USGS": null, "riverName": null, "community": null }, "geometry": { "type": "Point", "coordinates": [ -150.630555555559994, 60.491111111111003 ] } },
{ "type": "Feature", "properties": { "stationID_NWS": " KSFA2 ", "stationID_USGS": null, "riverName": null, "community": null }, "geometry": { "type": "Point", "coordinates": [ -151.259722222220006, 60.318055555556001 ] } },
{ "type": "Feature", "properties": { "stationID_NWS": " KTIA2 ", "stationID_USGS": null, "riverName": null, "community": null }, "geometry": { "type": "Point", "coordinates": [ -155.5217, 59.7939 ] } },
{ "type": "Feature", "properties": { "stationID_NWS": " KTIA2 ", "stationID_USGS": null, "riverName": null, "community": null }, "geometry": { "type": "Point", "coordinates": [ -155.521666666670001, 59.793888888889001 ] } },
{ "type": "Feature", "properties": { "stationID_NWS": " KTIA2 ", "stationID_USGS": null, "riverName": null, "community": null }, "geometry": { "type": "Point", "coordinates": [ -155.5225, 59.793333333333003 ] } },
{ "type": "Feature", "properties": { "stationID_NWS": " KTIA2 ", "stationID_USGS": null, "riverName": null, "community": null }, "geometry": { "type": "Point", "coordinates": [ -155.521666666670001, 59.793888888889001 ] } },
{ "type": "Feature", "properties": { "stationID_NWS": " KTIA2 ", "stationID_USGS": null, "riverName": null, "community": null }, "geometry": { "type": "Point", "coordinates": [ -155.5225, 59.793333333333003 ] } },
{ "type": "Feature", "properties": { "stationID_NWS": " KTIA2 ", "stationID_USGS": null, "riverName": null, "community": null }, "geometry": { "type": "Point", "coordinates": [ -156.105833333329997, 59.793333333333003 ] } },
{ "type": "Feature", "properties": { "stationID_NWS": " KTIA2 ", "stationID_USGS": null, "riverName": null, "community": null }, "geometry": { "type": "Point", "coordinates": [ -155.5225, 59.793333333333003 ] } },
{ "type": "Feature", "properties": { "stationID_NWS": " KULA2 ", "stationID_USGS": null, "riverName": null, "community": null }, "geometry": { "type": "Point", "coordinates": [ -159.775833333332997, 59.038888888888899 ] } },
{ "type": "Feature", "properties": { "stationID_NWS": " KULA2 ", "stationID_USGS": null, "riverName": null, "community": null }, "geometry": { "type": "Point", "coordinates": [ -159.775833333330013, 59.038888888888998 ] } },
{ "type": "Feature", "properties": { "stationID_NWS": " KUPA2 ", "stationID_USGS": null, "riverName": null, "community": null }, "geometry": { "type": "Point", "coordinates": [ -148.9597, 70.2817 ] } },
{ "type": "Feature", "properties": { "stationID_NWS": " KUPA2 ", "stationID_USGS": null, "riverName": null, "community": null }, "geometry": { "type": "Point", "coordinates": [ -148.960833333329987, 70.283055555556004 ] } },
{ "type": "Feature", "properties": { "stationID_NWS": " KUPA2 ", "stationID_USGS": null, "riverName": null, "community": null }, "geometry": { "type": "Point", "coordinates": [ -148.959722222219995, 70.281666666666993 ] } },
{ "type": "Feature", "properties": { "stationID_NWS": " KUPA2 ", "stationID_USGS": null, "riverName": null, "community": null }, "geometry": { "type": "Point", "coordinates": [ -148.960833333329987, 70.283055555556004 ] } },
{ "type": "Feature", "properties": { "stationID_NWS": " KWKA2 ", "stationID_USGS": null, "riverName": null, "community": null }, "geometry": { "type": "Point", "coordinates": [ -157.8041, 59.415 ] } },
{ "type": "Feature", "properties": { "stationID_NWS": " LHFA2 ", "stationID_USGS": null, "riverName": null, "community": null }, "geometry": { "type": "Point", "coordinates": [ -145.906111111110988, 61.066944444444403 ] } },
{ "type": "Feature", "properties": { "stationID_NWS": " LHFA2 ", "stationID_USGS": null, "riverName": null, "community": null }, "geometry": { "type": "Point", "coordinates": [ -145.906111111109993, 61.066944444443997 ] } },
{ "type": "Feature", "properties": { "stationID_NWS": " LMCA2 ", "stationID_USGS": null, "riverName": null, "community": null }, "geometry": { "type": "Point", "coordinates": [ -134.4983, 58.3572 ] } },
{ "type": "Feature", "properties": { "stationID_NWS": " LMCA2 ", "stationID_USGS": null, "riverName": null, "community": null }, "geometry": { "type": "Point", "coordinates": [ -134.420833333329995, 58.391666666667 ] } },
{ "type": "Feature", "properties": { "stationID_NWS": " LMCA2 ", "stationID_USGS": null, "riverName": null, "community": null }, "geometry": { "type": "Point", "coordinates": [ -134.49833333333001, 58.357222222221999 ] } },
{ "type": "Feature", "properties": { "stationID_NWS": " LMCA2 ", "stationID_USGS": null, "riverName": null, "community": null }, "geometry": { "type": "Point", "coordinates": [ -134.420833333329995, 58.391666666667 ] } },
{ "type": "Feature", "properties": { "stationID_NWS": " LMCA2 ", "stationID_USGS": null, "riverName": null, "community": null }, "geometry": { "type": "Point", "coordinates": [ -134.420833333329995, 58.391666666667 ] } },
{ "type": "Feature", "properties": { "stationID_NWS": " LMCA2 ", "stationID_USGS": null, "riverName": null, "community": null }, "geometry": { "type": "Point", "coordinates": [ -134.458888888889987, 58.391666666667 ] } },
{ "type": "Feature", "properties": { "stationID_NWS": " LMCA2 ", "stationID_USGS": null, "riverName": null, "community": null }, "geometry": { "type": "Point", "coordinates": [ -134.458888888889987, 58.391666666667 ] } },
{ "type": "Feature", "properties": { "stationID_NWS": " LMHA2 ", "stationID_USGS": null, "riverName": null, "community": null }, "geometry": { "type": "Point", "coordinates": [ -152.3014, 63.9111 ] } },
{ "type": "Feature", "properties": { "stationID_NWS": " LMHA2 ", "stationID_USGS": null, "riverName": null, "community": null }, "geometry": { "type": "Point", "coordinates": [ -152.301388888889988, 63.911111111110998 ] } },
{ "type": "Feature", "properties": { "stationID_NWS": " LMHA2 ", "stationID_USGS": null, "riverName": null, "community": null }, "geometry": { "type": "Point", "coordinates": [ -152.278611111109996, 63.909722222222001 ] } },
{ "type": "Feature", "properties": { "stationID_NWS": " LSCA2 ", "stationID_USGS": null, "riverName": null, "community": null }, "geometry": { "type": "Point", "coordinates": [ -131.52277, 55.51944 ] } },
{ "type": "Feature", "properties": { "stationID_NWS": " LSHA2 ", "stationID_USGS": null, "riverName": null, "community": null }, "geometry": { "type": "Point", "coordinates": [ -149.8008, 61.6267 ] } },
{ "type": "Feature", "properties": { "stationID_NWS": " LSHA2 ", "stationID_USGS": null, "riverName": null, "community": null }, "geometry": { "type": "Point", "coordinates": [ -149.80083333332999, 61.626666666666999 ] } },
{ "type": "Feature", "properties": { "stationID_NWS": " LSHA2 ", "stationID_USGS": null, "riverName": null, "community": null }, "geometry": { "type": "Point", "coordinates": [ -149.801111111110004, 61.627222222222002 ] } },
{ "type": "Feature", "properties": { "stationID_NWS": " LSUA2 ", "stationID_USGS": null, "riverName": null, "community": null }, "geometry": { "type": "Point", "coordinates": [ -149.2297, 61.7103 ] } },
{ "type": "Feature", "properties": { "stationID_NWS": " LSUA2 ", "stationID_USGS": null, "riverName": null, "community": null }, "geometry": { "type": "Point", "coordinates": [ -149.229722222220005, 61.710277777778003 ] } },
{ "type": "Feature", "properties": { "stationID_NWS": " LWCA2 ", "stationID_USGS": null, "riverName": null, "community": null }, "geometry": { "type": "Point", "coordinates": [ -150.095, 61.8106 ] } },
{ "type": "Feature", "properties": { "stationID_NWS": " LWCA2 ", "stationID_USGS": null, "riverName": null, "community": null }, "geometry": { "type": "Point", "coordinates": [ -150.095, 61.810277777777998 ] } },
{ "type": "Feature", "properties": { "stationID_NWS": " MACA2 ", "stationID_USGS": null, "riverName": null, "community": null }, "geometry": { "type": "Point", "coordinates": [ -146.5292, 63.1194 ] } },
{ "type": "Feature", "properties": { "stationID_NWS": " MACA2 ", "stationID_USGS": null, "riverName": null, "community": null }, "geometry": { "type": "Point", "coordinates": [ -146.529166666669994, 63.119444444443999 ] } },
{ "type": "Feature", "properties": { "stationID_NWS": " MACA2 ", "stationID_USGS": null, "riverName": null, "community": null }, "geometry": { "type": "Point", "coordinates": [ -146.520833333329989, 63.119444444443999 ] } },
{ "type": "Feature", "properties": { "stationID_NWS": " MAGA2 ", "stationID_USGS": null, "riverName": null, "community": null }, "geometry": { "type": "Point", "coordinates": [ -147.48, 61.47 ] } },
{ "type": "Feature", "properties": { "stationID_NWS": " MAGA2 ", "stationID_USGS": null, "riverName": null, "community": null }, "geometry": { "type": "Point", "coordinates": [ -147.8, 61.7833 ] } },
{ "type": "Feature", "properties": { "stationID_NWS": " MAGA2 ", "stationID_USGS": null, "riverName": null, "community": null }, "geometry": { "type": "Point", "coordinates": [ -147.8, 61.783333333332997 ] } },
{ "type": "Feature", "properties": { "stationID_NWS": " MAGA2 ", "stationID_USGS": null, "riverName": null, "community": null }, "geometry": { "type": "Point", "coordinates": [ -147.798055555560012, 61.793333333333003 ] } },
{ "type": "Feature", "properties": { "stationID_NWS": " MATA2 ", "stationID_USGS": null, "riverName": null, "community": null }, "geometry": { "type": "Point", "coordinates": [ -149.04, 61.36 ] } },
{ "type": "Feature", "properties": { "stationID_NWS": " MATA2 ", "stationID_USGS": null, "riverName": null, "community": null }, "geometry": { "type": "Point", "coordinates": [ -149.0711, 61.6094 ] } },
{ "type": "Feature", "properties": { "stationID_NWS": " MATA2 ", "stationID_USGS": null, "riverName": null, "community": null }, "geometry": { "type": "Point", "coordinates": [ -149.07083333333, 61.609166666667001 ] } },
{ "type": "Feature", "properties": { "stationID_NWS": " MATA2 ", "stationID_USGS": null, "riverName": null, "community": null }, "geometry": { "type": "Point", "coordinates": [ -149.073055555559989, 61.608611111111003 ] } },
{ "type": "Feature", "properties": { "stationID_NWS": " MATA2 ", "stationID_USGS": null, "riverName": null, "community": null }, "geometry": { "type": "Point", "coordinates": [ -149.131111111109988, 61.608611111111003 ] } },
{ "type": "Feature", "properties": { "stationID_NWS": " MATA2 ", "stationID_USGS": null, "riverName": null, "community": null }, "geometry": { "type": "Point", "coordinates": [ -149.073055555559989, 61.608611111111003 ] } },
{ "type": "Feature", "properties": { "stationID_NWS": " MCAA2 ", "stationID_USGS": null, "riverName": null, "community": null }, "geometry": { "type": "Point", "coordinates": [ -134.615, 58.3981 ] } },
{ "type": "Feature", "properties": { "stationID_NWS": " MCAA2 ", "stationID_USGS": null, "riverName": null, "community": null }, "geometry": { "type": "Point", "coordinates": [ -134.609444444443994, 58.398055555555601 ] } },
{ "type": "Feature", "properties": { "stationID_NWS": " MCAA2 ", "stationID_USGS": null, "riverName": null, "community": null }, "geometry": { "type": "Point", "coordinates": [ -134.695, 58.398055555555999 ] } },
{ "type": "Feature", "properties": { "stationID_NWS": " MCAA2 ", "stationID_USGS": null, "riverName": null, "community": null }, "geometry": { "type": "Point", "coordinates": [ -134.6089, 58.3978 ] } },
{ "type": "Feature", "properties": { "stationID_NWS": " MCDA2 ", "stationID_USGS": null, "riverName": null, "community": null }, "geometry": { "type": "Point", "coordinates": [ -147.2278, 64.8008 ] } },
{ "type": "Feature", "properties": { "stationID_NWS": " MCDA2 ", "stationID_USGS": null, "riverName": null, "community": null }, "geometry": { "type": "Point", "coordinates": [ -147.227777777777987, 64.800833333333301 ] } },
{ "type": "Feature", "properties": { "stationID_NWS": " MCDA2 ", "stationID_USGS": null, "riverName": null, "community": null }, "geometry": { "type": "Point", "coordinates": [ -147.227777777780005, 64.800833333333003 ] } },
{ "type": "Feature", "properties": { "stationID_NWS": " MCGA2 ", "stationID_USGS": null, "riverName": null, "community": null }, "geometry": { "type": "Point", "coordinates": [ -155.5903, 62.9583 ] } },
{ "type": "Feature", "properties": { "stationID_NWS": " MCGA2 ", "stationID_USGS": null, "riverName": null, "community": null }, "geometry": { "type": "Point", "coordinates": [ -155.590277777779988, 62.958333333333002 ] } },