{
"type": "FeatureCollection",
"crs": { "type": "name", "properties": { "name": "urn:ogc:def:crs:OGC:1.3:CRS84" } },
"features": [
{ "type": "Feature", "properties": { "riverName": "Anvik River", "community": "Anvik", "stationID": "NaN", "stationID_NWS": null }, "geometry": { "type": "Point", "coordinates": [ -160.209237, 62.655659 ] } },
{ "type": "Feature", "properties": { "riverName": "North Fork Andreafski River", "community": "St. Mary's", "stationID": "NaN", "stationID_NWS": null }, "geometry": { "type": "Point", "coordinates": [ -163.218629, 62.045305 ] } },
{ "type": "Feature", "properties": { "riverName": "Chandlar River ", "community": "Venetie", "stationID": "NaN", "stationID_NWS": null }, "geometry": { "type": "Point", "coordinates": [ -146.416052, 67.055639 ] } },
{ "type": "Feature", "properties": { "riverName": "Hess Creek", "community": null, "stationID": "NaN", "stationID_NWS": null }, "geometry": { "type": "Point", "coordinates": [ -149.4726, 65.7174 ] } },
{ "type": "Feature", "properties": { "riverName": "Koyukuk River", "community": null, "stationID": "NaN", "stationID_NWS": null }, "geometry": { "type": "Point", "coordinates": [ -157.704393, 64.881745 ] } },
{ "type": "Feature", "properties": { "riverName": "Porcupine River - Fort Yukon", "community": null, "stationID": "NaN", "stationID_NWS": null }, "geometry": { "type": "Point", "coordinates": [ -145.256389, 66.5675 ] } },
{ "type": "Feature", "properties": { "riverName": "Tanana River above Tok", "community": null, "stationID": "NaN", "stationID_NWS": null }, "geometry": { "type": "Point", "coordinates": [ -143.018056, 63.324167 ] } },
{ "type": "Feature", "properties": { "riverName": "Pelly River at Pelly Crossing", "community": "Carmacks", "stationID": "NaN", "stationID_NWS": null }, "geometry": { "type": "Point", "coordinates": [ -136.248889, 61.99 ] } },
{ "type": "Feature", "properties": { "riverName": "Stewart River", "community": "Mayo", "stationID": "NaN", "stationID_NWS": null }, "geometry": { "type": "Point", "coordinates": [ -135.8965, 63.5943 ] } },
{ "type": "Feature", "properties": { "riverName": "Teslin River", "community": "Teslin", "stationID": "NaN", "stationID_NWS": null }, "geometry": { "type": "Point", "coordinates": [ -132.721667, 60.167222 ] } },
{ "type": "Feature", "properties": { "riverName": "White River", "community": "Beaver", "stationID": "NaN", "stationID_NWS": null }, "geometry": { "type": "Point", "coordinates": [ -140.893056, 62.385278 ] } },
{ "type": "Feature", "properties": { "riverName": "Yukon River above Anvik", "community": "Anvik", "stationID": "NaN", "stationID_NWS": null }, "geometry": { "type": "Point", "coordinates": [ -160.209167, 62.655556 ] } },
{ "type": "Feature", "properties": { "riverName": "Yukon River above Eagle", "community": "Eagle", "stationID": "NaN", "stationID_NWS": null }, "geometry": { "type": "Point", "coordinates": [ -141.201389, 64.7875 ] } },
{ "type": "Feature", "properties": { "riverName": "Yukon River at Fort Yukon", "community": "Fort Yukon", "stationID": "NaN", "stationID_NWS": null }, "geometry": { "type": "Point", "coordinates": [ -145.0, 66.52 ] } },
{ "type": "Feature", "properties": { "riverName": "Yukon River at Galena", "community": "Galena", "stationID": "NaN", "stationID_NWS": null }, "geometry": { "type": "Point", "coordinates": [ -156.885556, 64.740556 ] } },
{ "type": "Feature", "properties": { "riverName": "Yukon River above Tanana", "community": "Tanana", "stationID": "NaN", "stationID_NWS": null }, "geometry": { "type": "Point", "coordinates": [ -152.075833, 65.170556 ] } },
{ "type": "Feature", "properties": { "riverName": "Yukon River at Carmacks", "community": "Carmacks", "stationID": "NaN", "stationID_NWS": null }, "geometry": { "type": "Point", "coordinates": [ -136.288889, 62.088889 ] } },
{ "type": "Feature", "properties": { "riverName": "Yukon River at Dawson", "community": "Dawson", "stationID": "NaN", "stationID_NWS": null }, "geometry": { "type": "Point", "coordinates": [ -139.410833, 64.06 ] } },
{ "type": "Feature", "properties": { "riverName": "Yukon River above Whitehorse", "community": "Whitehorse", "stationID": "NaN", "stationID_NWS": null }, "geometry": { "type": "Point", "coordinates": [ -135.05, 60.716667 ] } },
{ "type": "Feature", "properties": { "riverName": "Canning River - no gage", "community": null, "stationID": "NaN", "stationID_NWS": null }, "geometry": { "type": "Point", "coordinates": [ -146.303283, 69.589223 ] } },
{ "type": "Feature", "properties": { "riverName": "Aichilik River - no gage", "community": null, "stationID": "NaN", "stationID_NWS": null }, "geometry": { "type": "Point", "coordinates": [ -143.062171, 69.533879 ] } },
{ "type": "Feature", "properties": { "riverName": null, "community": null, "stationID": "NaN", "stationID_NWS": "AKLA2" }, "geometry": { "type": "Point", "coordinates": [ -134.6369, 58.385 ] } },
{ "type": "Feature", "properties": { "riverName": null, "community": null, "stationID": "NaN", "stationID_NWS": "ALAQ9" }, "geometry": { "type": "Point", "coordinates": [ -137.4111, 61.5903 ] } },
{ "type": "Feature", "properties": { "riverName": null, "community": null, "stationID": "NaN", "stationID_NWS": "ALLA2" }, "geometry": { "type": "Point", "coordinates": [ -152.4, 66.34 ] } },
{ "type": "Feature", "properties": { "riverName": null, "community": null, "stationID": "NaN", "stationID_NWS": "ALSQ9" }, "geometry": { "type": "Point", "coordinates": [ -137.9742, 60.1192 ] } },
{ "type": "Feature", "properties": { "riverName": null, "community": null, "stationID": "NaN", "stationID_NWS": "ALWQ9" }, "geometry": { "type": "Point", "coordinates": [ -136.9981, 61.1981 ] } },
{ "type": "Feature", "properties": { "riverName": null, "community": null, "stationID": "NaN", "stationID_NWS": "APBA2" }, "geometry": { "type": "Point", "coordinates": [ -151.8364, 59.7722 ] } },
{ "type": "Feature", "properties": { "riverName": null, "community": null, "stationID": "NaN", "stationID_NWS": "ARAQ9" }, "geometry": { "type": "Point", "coordinates": [ -136.99, 61.1844 ] } },
{ "type": "Feature", "properties": { "riverName": null, "community": null, "stationID": "NaN", "stationID_NWS": "BCTA2" }, "geometry": { "type": "Point", "coordinates": [ -145.7125, 65.3925 ] } },
{ "type": "Feature", "properties": { "riverName": null, "community": null, "stationID": "NaN", "stationID_NWS": "BELQ9" }, "geometry": { "type": "Point", "coordinates": [ -134.7075, 60.1639 ] } },
{ "type": "Feature", "properties": { "riverName": null, "community": null, "stationID": "NaN", "stationID_NWS": "BETA2" }, "geometry": { "type": "Point", "coordinates": [ -161.45, 60.48 ] } },
{ "type": "Feature", "properties": { "riverName": null, "community": null, "stationID": "NaN", "stationID_NWS": "BGCQ9" }, "geometry": { "type": "Point", "coordinates": [ -129.7028, 60.1583 ] } },
{ "type": "Feature", "properties": { "riverName": null, "community": null, "stationID": "NaN", "stationID_NWS": "BGDA2" }, "geometry": { "type": "Point", "coordinates": [ -145.5, 64.08 ] } },
{ "type": "Feature", "properties": { "riverName": null, "community": null, "stationID": "NaN", "stationID_NWS": "BGMQ9" }, "geometry": { "type": "Point", "coordinates": [ -137.0161, 62.5686 ] } },
{ "type": "Feature", "properties": { "riverName": null, "community": null, "stationID": "NaN", "stationID_NWS": "BRMA2" }, "geometry": { "type": "Point", "coordinates": [ -150.7542, 59.7783 ] } },
{ "type": "Feature", "properties": { "riverName": null, "community": null, "stationID": "NaN", "stationID_NWS": "BTTA2" }, "geometry": { "type": "Point", "coordinates": [ -151.5, 66.9167 ] } },
{ "type": "Feature", "properties": { "riverName": null, "community": null, "stationID": "NaN", "stationID_NWS": "BVRQ9" }, "geometry": { "type": "Point", "coordinates": [ -134.1333, 65.0167 ] } },
{ "type": "Feature", "properties": { "riverName": null, "community": null, "stationID": "NaN", "stationID_NWS": "CCTA2" }, "geometry": { "type": "Point", "coordinates": [ -144.432222222222009, 61.514444444444401 ] } },
{ "type": "Feature", "properties": { "riverName": null, "community": null, "stationID": "NaN", "stationID_NWS": "CCVA2" }, "geometry": { "type": "Point", "coordinates": [ -150.4094, 70.4322 ] } },
{ "type": "Feature", "properties": { "riverName": null, "community": null, "stationID": "NaN", "stationID_NWS": "CIRA2" }, "geometry": { "type": "Point", "coordinates": [ -144.04, 65.5 ] } },
{ "type": "Feature", "properties": { "riverName": null, "community": null, "stationID": "NaN", "stationID_NWS": "CRNA2" }, "geometry": { "type": "Point", "coordinates": [ -141.8047, 63.0064 ] } },
{ "type": "Feature", "properties": { "riverName": null, "community": null, "stationID": "NaN", "stationID_NWS": "CRSA2" }, "geometry": { "type": "Point", "coordinates": [ -147.2542, 65.1906 ] } },
{ "type": "Feature", "properties": { "riverName": null, "community": null, "stationID": "NaN", "stationID_NWS": "CRWA2" }, "geometry": { "type": "Point", "coordinates": [ -158.7053, 56.2622 ] } },
{ "type": "Feature", "properties": { "riverName": null, "community": null, "stationID": "NaN", "stationID_NWS": "CSRA2" }, "geometry": { "type": "Point", "coordinates": [ -149.43, 61.09 ] } },
{ "type": "Feature", "properties": { "riverName": null, "community": null, "stationID": "NaN", "stationID_NWS": "DELA2" }, "geometry": { "type": "Point", "coordinates": [ -145.8142, 63.2031 ] } },
{ "type": "Feature", "properties": { "riverName": null, "community": null, "stationID": "NaN", "stationID_NWS": "DEPA2" }, "geometry": { "type": "Point", "coordinates": [ -151.6832, 60.0297 ] } },
{ "type": "Feature", "properties": { "riverName": null, "community": null, "stationID": "NaN", "stationID_NWS": "DEZQ9" }, "geometry": { "type": "Point", "coordinates": [ -137.50833333333, 60.748055555556 ] } },
{ "type": "Feature", "properties": { "riverName": null, "community": null, "stationID": "NaN", "stationID_NWS": "EGGA2" }, "geometry": { "type": "Point", "coordinates": [ -156.845, 58.039722222222203 ] } },
{ "type": "Feature", "properties": { "riverName": null, "community": null, "stationID": "NaN", "stationID_NWS": "ERBA2" }, "geometry": { "type": "Point", "coordinates": [ -149.5744, 61.3108 ] } },
{ "type": "Feature", "properties": { "riverName": null, "community": null, "stationID": "NaN", "stationID_NWS": "ERLA2" }, "geometry": { "type": "Point", "coordinates": [ -149.6878, 61.3109 ] } },
{ "type": "Feature", "properties": { "riverName": null, "community": null, "stationID": "NaN", "stationID_NWS": "EXTA2" }, "geometry": { "type": "Point", "coordinates": [ -149.625, 60.1867 ] } },
{ "type": "Feature", "properties": { "riverName": null, "community": null, "stationID": "NaN", "stationID_NWS": "EYAA2" }, "geometry": { "type": "Point", "coordinates": [ -145.644444, 60.531111 ] } },
{ "type": "Feature", "properties": { "riverName": null, "community": null, "stationID": "NaN", "stationID_NWS": "EYLA2" }, "geometry": { "type": "Point", "coordinates": [ -145.691388888890003, 60.551388888889001 ] } },
{ "type": "Feature", "properties": { "riverName": null, "community": null, "stationID": "NaN", "stationID_NWS": "FLSA2" }, "geometry": { "type": "Point", "coordinates": [ -132.9222, 56.6822 ] } },
{ "type": "Feature", "properties": { "riverName": null, "community": null, "stationID": "NaN", "stationID_NWS": "FMKA2" }, "geometry": { "type": "Point", "coordinates": [ -141.6306, 64.0761 ] } },
{ "type": "Feature", "properties": { "riverName": null, "community": null, "stationID": "NaN", "stationID_NWS": "FMMA2" }, "geometry": { "type": "Point", "coordinates": [ -141.9972, 64.0661 ] } },
{ "type": "Feature", "properties": { "riverName": null, "community": null, "stationID": "NaN", "stationID_NWS": "FMSA2" }, "geometry": { "type": "Point", "coordinates": [ -141.7672, 64.0578 ] } },
{ "type": "Feature", "properties": { "riverName": null, "community": null, "stationID": "NaN", "stationID_NWS": "FMWA2" }, "geometry": { "type": "Point", "coordinates": [ -142.2322, 63.8894 ] } },
{ "type": "Feature", "properties": { "riverName": null, "community": null, "stationID": "NaN", "stationID_NWS": "GAKA2" }, "geometry": { "type": "Point", "coordinates": [ -145.18, 62.18 ] } },
{ "type": "Feature", "properties": { "riverName": null, "community": null, "stationID": "NaN", "stationID_NWS": "GICQ9" }, "geometry": { "type": "Point", "coordinates": [ -136.9872, 61.1967 ] } },
{ "type": "Feature", "properties": { "riverName": null, "community": null, "stationID": "NaN", "stationID_NWS": "GPOA2" }, "geometry": { "type": "Point", "coordinates": [ -145.6167, 63.6917 ] } },
{ "type": "Feature", "properties": { "riverName": null, "community": null, "stationID": "NaN", "stationID_NWS": "GULA2" }, "geometry": { "type": "Point", "coordinates": [ -145.23, 62.16 ] } },
{ "type": "Feature", "properties": { "riverName": null, "community": null, "stationID": "NaN", "stationID_NWS": "GYRA2" }, "geometry": { "type": "Point", "coordinates": [ -156.56, 64.44 ] } },
{ "type": "Feature", "properties": { "riverName": null, "community": null, "stationID": "NaN", "stationID_NWS": "HBRA2" }, "geometry": { "type": "Point", "coordinates": [ -134.795, 58.523888888888898 ] } },
{ "type": "Feature", "properties": { "riverName": null, "community": null, "stationID": "NaN", "stationID_NWS": "HNRA2" }, "geometry": { "type": "Point", "coordinates": [ -148.58, 63.51 ] } },
{ "type": "Feature", "properties": { "riverName": null, "community": null, "stationID": "NaN", "stationID_NWS": "ICDA2" }, "geometry": { "type": "Point", "coordinates": [ -149.5848, 63.6088 ] } },
{ "type": "Feature", "properties": { "riverName": null, "community": null, "stationID": "NaN", "stationID_NWS": "IKPA2" }, "geometry": { "type": "Point", "coordinates": [ -154.6692, 69.7667 ] } },
{ "type": "Feature", "properties": { "riverName": null, "community": null, "stationID": "NaN", "stationID_NWS": "ISKQ2" }, "geometry": { "type": "Point", "coordinates": [ -131.673611111110006, 56.738888888889001 ] } },
{ "type": "Feature", "properties": { "riverName": null, "community": null, "stationID": "NaN", "stationID_NWS": "JDYA2" }, "geometry": { "type": "Point", "coordinates": [ -151.834722222222013, 70.220555555555606 ] } },
{ "type": "Feature", "properties": { "riverName": null, "community": null, "stationID": "NaN", "stationID_NWS": "JRDA2" }, "geometry": { "type": "Point", "coordinates": [ -134.579722222219999, 58.363888888889001 ] } },
{ "type": "Feature", "properties": { "riverName": null, "community": null, "stationID": "NaN", "stationID_NWS": "KBJA2" }, "geometry": { "type": "Point", "coordinates": [ -151.680833333330014, 66.908055555556004 ] } },
{ "type": "Feature", "properties": { "riverName": null, "community": null, "stationID": "NaN", "stationID_NWS": "KEYA2" }, "geometry": { "type": "Point", "coordinates": [ -150.35, 60.28 ] } },
{ "type": "Feature", "properties": { "riverName": null, "community": null, "stationID": "NaN", "stationID_NWS": "KLNQ9" }, "geometry": { "type": "Point", "coordinates": [ -139.4078, 64.0428 ] } },
{ "type": "Feature", "properties": { "riverName": null, "community": null, "stationID": "NaN", "stationID_NWS": "KLUA2" }, "geometry": { "type": "Point", "coordinates": [ -145.3064, 61.9528 ] } },
{ "type": "Feature", "properties": { "riverName": null, "community": null, "stationID": "NaN", "stationID_NWS": "KNKA2" }, "geometry": { "type": "Point", "coordinates": [ -149.030556, 61.505 ] } },
{ "type": "Feature", "properties": { "riverName": null, "community": null, "stationID": "NaN", "stationID_NWS": "KPHA2" }, "geometry": { "type": "Point", "coordinates": [ -131.633611111110014, 55.344444444444001 ] } },
{ "type": "Feature", "properties": { "riverName": null, "community": null, "stationID": "NaN", "stationID_NWS": "KRKA2" }, "geometry": { "type": "Point", "coordinates": [ -150.6656, 60.5003 ] } },
{ "type": "Feature", "properties": { "riverName": null, "community": null, "stationID": "NaN", "stationID_NWS": "KSFA2" }, "geometry": { "type": "Point", "coordinates": [ -151.259722222220006, 60.318055555556001 ] } },
{ "type": "Feature", "properties": { "riverName": null, "community": null, "stationID": "NaN", "stationID_NWS": "KULA2" }, "geometry": { "type": "Point", "coordinates": [ -159.775833333332997, 59.038888888888899 ] } },
{ "type": "Feature", "properties": { "riverName": null, "community": null, "stationID": "NaN", "stationID_NWS": "LMCA2" }, "geometry": { "type": "Point", "coordinates": [ -134.4983, 58.3572 ] } },
{ "type": "Feature", "properties": { "riverName": null, "community": null, "stationID": "NaN", "stationID_NWS": "LMHA2" }, "geometry": { "type": "Point", "coordinates": [ -152.3014, 63.9111 ] } },
{ "type": "Feature", "properties": { "riverName": null, "community": null, "stationID": "NaN", "stationID_NWS": "LSHA2" }, "geometry": { "type": "Point", "coordinates": [ -149.8008, 61.6267 ] } },
{ "type": "Feature", "properties": { "riverName": null, "community": null, "stationID": "NaN", "stationID_NWS": "MACA2" }, "geometry": { "type": "Point", "coordinates": [ -146.5292, 63.1194 ] } },
{ "type": "Feature", "properties": { "riverName": null, "community": null, "stationID": "NaN", "stationID_NWS": "MAGA2" }, "geometry": { "type": "Point", "coordinates": [ -147.48, 61.47 ] } },
{ "type": "Feature", "properties": { "riverName": null, "community": null, "stationID": "NaN", "stationID_NWS": "MCAA2" }, "geometry": { "type": "Point", "coordinates": [ -134.615, 58.3981 ] } },
{ "type": "Feature", "properties": { "riverName": null, "community": null, "stationID": "NaN", "stationID_NWS": "MCGA2" }, "geometry": { "type": "Point", "coordinates": [ -155.5903, 62.9583 ] } },
{ "type": "Feature", "properties": { "riverName": null, "community": null, "stationID": "NaN", "stationID_NWS": "MCLA2" }, "geometry": { "type": "Point", "coordinates": [ -146.535, 63.119166666666999 ] } },
{ "type": "Feature", "properties": { "riverName": null, "community": null, "stationID": "NaN", "stationID_NWS": "MFKA2" }, "geometry": { "type": "Point", "coordinates": [ -150.075, 67.4383 ] } },
{ "type": "Feature", "properties": { "riverName": null, "community": null, "stationID": "NaN", "stationID_NWS": "MKNA2" }, "geometry": { "type": "Point", "coordinates": [ -150.9102, 63.5161 ] } },
{ "type": "Feature", "properties": { "riverName": null, "community": null, "stationID": "NaN", "stationID_NWS": "MLOQ9" }, "geometry": { "type": "Point", "coordinates": [ -135.3881, 63.6733 ] } },
{ "type": "Feature", "properties": { "riverName": null, "community": null, "stationID": "NaN", "stationID_NWS": "MLWQ9" }, "geometry": { "type": "Point", "coordinates": [ -134.3653, 60.5306 ] } },
{ "type": "Feature", "properties": { "riverName": null, "community": null, "stationID": "NaN", "stationID_NWS": "MNBA2" }, "geometry": { "type": "Point", "coordinates": [ -134.5844, 58.4042 ] } },
{ "type": "Feature", "properties": { "riverName": null, "community": null, "stationID": "NaN", "stationID_NWS": "MONA2" }, "geometry": { "type": "Point", "coordinates": [ -150.06, 62.1044 ] } },
{ "type": "Feature", "properties": { "riverName": null, "community": null, "stationID": "NaN", "stationID_NWS": "MOWA2" }, "geometry": { "type": "Point", "coordinates": [ -150.4433, 62.2289 ] } },
{ "type": "Feature", "properties": { "riverName": null, "community": null, "stationID": "NaN", "stationID_NWS": "MPTA2" }, "geometry": { "type": "Point", "coordinates": [ -149.3731, 60.4319 ] } },
{ "type": "Feature", "properties": { "riverName": null, "community": null, "stationID": "NaN", "stationID_NWS": "NABA2" }, "geometry": { "type": "Point", "coordinates": [ -142.169722222220003, 62.791388888889003 ] } },
{ "type": "Feature", "properties": { "riverName": null, "community": null, "stationID": "NaN", "stationID_NWS": "NASQ2" }, "geometry": { "type": "Point", "coordinates": [ -129.08611111111, 55.263888888888999 ] } },
{ "type": "Feature", "properties": { "riverName": null, "community": null, "stationID": "NaN", "stationID_NWS": "NINA2" }, "geometry": { "type": "Point", "coordinates": [ -151.4, 60.03 ] } },
{ "type": "Feature", "properties": { "riverName": null, "community": null, "stationID": "NaN", "stationID_NWS": "NIRQ9" }, "geometry": { "type": "Point", "coordinates": [ -139.0486, 61.2081 ] } },
{ "type": "Feature", "properties": { "riverName": null, "community": null, "stationID": "NaN", "stationID_NWS": "NRWA2" }, "geometry": { "type": "Point", "coordinates": [ -148.803055555560007, 63.457777777777999 ] } },
{ "type": "Feature", "properties": { "riverName": null, "community": null, "stationID": "NaN", "stationID_NWS": "NSHA2" }, "geometry": { "type": "Point", "coordinates": [ -157.4731, 59.3492 ] } },
{ "type": "Feature", "properties": { "riverName": null, "community": null, "stationID": "NaN", "stationID_NWS": "NSTA2" }, "geometry": { "type": "Point", "coordinates": [ -157.3091, 59.4511 ] } },
{ "type": "Feature", "properties": { "riverName": null, "community": null, "stationID": "NaN", "stationID_NWS": "NUIA2" }, "geometry": { "type": "Point", "coordinates": [ -151.8725, 70.2703 ] } },
{ "type": "Feature", "properties": { "riverName": null, "community": null, "stationID": "NaN", "stationID_NWS": "OBRA2" }, "geometry": { "type": "Point", "coordinates": [ -141.4169, 64.3158 ] } },
{ "type": "Feature", "properties": { "riverName": null, "community": null, "stationID": "NaN", "stationID_NWS": "OCRQ9" }, "geometry": { "type": "Point", "coordinates": [ -139.6964, 67.6344 ] } },
{ "type": "Feature", "properties": { "riverName": null, "community": null, "stationID": "NaN", "stationID_NWS": "OSLQ2" }, "geometry": { "type": "Point", "coordinates": [ -124.796388888889993, 56.126388888888997 ] } },
{ "type": "Feature", "properties": { "riverName": null, "community": null, "stationID": "NaN", "stationID_NWS": "OSPQ2" }, "geometry": { "type": "Point", "coordinates": [ -123.92888888889, 56.466111111110997 ] } },
{ "type": "Feature", "properties": { "riverName": null, "community": null, "stationID": "NaN", "stationID_NWS": "PRBQ9" }, "geometry": { "type": "Point", "coordinates": [ -140.8911, 67.4242 ] } },
{ "type": "Feature", "properties": { "riverName": null, "community": null, "stationID": "NaN", "stationID_NWS": "PRNA2" }, "geometry": { "type": "Point", "coordinates": [ -152.63666666667001, 69.321666666666999 ] } },
{ "type": "Feature", "properties": { "riverName": null, "community": null, "stationID": "NaN", "stationID_NWS": "PROQ9" }, "geometry": { "type": "Point", "coordinates": [ -139.88333333333, 67.563888888888997 ] } },
{ "type": "Feature", "properties": { "riverName": null, "community": null, "stationID": "NaN", "stationID_NWS": "PRXQ9" }, "geometry": { "type": "Point", "coordinates": [ -136.5806, 62.8297 ] } },
{ "type": "Feature", "properties": { "riverName": null, "community": null, "stationID": "NaN", "stationID_NWS": "PSPQ2" }, "geometry": { "type": "Point", "coordinates": [ -122.916111111109998, 55.083055555556001 ] } },
{ "type": "Feature", "properties": { "riverName": null, "community": null, "stationID": "NaN", "stationID_NWS": "PWTA2" }, "geometry": { "type": "Point", "coordinates": [ -132.6279, 55.70567 ] } },
{ "type": "Feature", "properties": { "riverName": null, "community": null, "stationID": "NaN", "stationID_NWS": "QCKA2" }, "geometry": { "type": "Point", "coordinates": [ -149.7208, 60.4804 ] } },
{ "type": "Feature", "properties": { "riverName": null, "community": null, "stationID": "NaN", "stationID_NWS": "RBYA2" }, "geometry": { "type": "Point", "coordinates": [ -155.4842, 64.7425 ] } },
{ "type": "Feature", "properties": { "riverName": null, "community": null, "stationID": "NaN", "stationID_NWS": "RDCA2" }, "geometry": { "type": "Point", "coordinates": [ -152.623888888890008, 57.8175 ] } },
{ "type": "Feature", "properties": { "riverName": null, "community": null, "stationID": "NaN", "stationID_NWS": "RESA2" }, "geometry": { "type": "Point", "coordinates": [ -149.5889, 60.1947 ] } },
{ "type": "Feature", "properties": { "riverName": null, "community": null, "stationID": "NaN", "stationID_NWS": "SCJA2" }, "geometry": { "type": "Point", "coordinates": [ -134.4658, 58.3325 ] } },
{ "type": "Feature", "properties": { "riverName": null, "community": null, "stationID": "NaN", "stationID_NWS": "SCNA2" }, "geometry": { "type": "Point", "coordinates": [ -149.401666666669996, 60.140277777778003 ] } },
{ "type": "Feature", "properties": { "riverName": null, "community": null, "stationID": "NaN", "stationID_NWS": "SCOA2" }, "geometry": { "type": "Point", "coordinates": [ -141.02916666666701, 62.638611111111103 ] } },
{ "type": "Feature", "properties": { "riverName": null, "community": null, "stationID": "NaN", "stationID_NWS": "SDNA2" }, "geometry": { "type": "Point", "coordinates": [ -145.40222222221999, 60.478611111111 ] } },
{ "type": "Feature", "properties": { "riverName": null, "community": null, "stationID": "NaN", "stationID_NWS": "SFKA2" }, "geometry": { "type": "Point", "coordinates": [ -150.2928, 67.0197 ] } },
{ "type": "Feature", "properties": { "riverName": null, "community": null, "stationID": "NaN", "stationID_NWS": "SKGA2" }, "geometry": { "type": "Point", "coordinates": [ -135.2833, 59.4672 ] } },
{ "type": "Feature", "properties": { "riverName": null, "community": null, "stationID": "NaN", "stationID_NWS": "SKNQ2" }, "geometry": { "type": "Point", "coordinates": [ -128.431944444440006, 54.630555555556001 ] } },
{ "type": "Feature", "properties": { "riverName": null, "community": null, "stationID": "NaN", "stationID_NWS": "SKWA2" }, "geometry": { "type": "Point", "coordinates": [ -151.1669, 61.9619 ] } },
{ "type": "Feature", "properties": { "riverName": null, "community": null, "stationID": "NaN", "stationID_NWS": "SLWQ9" }, "geometry": { "type": "Point", "coordinates": [ -137.5903, 61.5361 ] } },
{ "type": "Feature", "properties": { "riverName": null, "community": null, "stationID": "NaN", "stationID_NWS": "SMNA2" }, "geometry": { "type": "Point", "coordinates": [ -149.4119, 60.1458 ] } },
{ "type": "Feature", "properties": { "riverName": null, "community": null, "stationID": "NaN", "stationID_NWS": "SNKA2" }, "geometry": { "type": "Point", "coordinates": [ -165.5072, 64.5642 ] } },
{ "type": "Feature", "properties": { "riverName": null, "community": null, "stationID": "NaN", "stationID_NWS": "SRDA2" }, "geometry": { "type": "Point", "coordinates": [ -149.4748, 63.7229 ] } },
{ "type": "Feature", "properties": { "riverName": null, "community": null, "stationID": "NaN", "stationID_NWS": "SRMQ9" }, "geometry": { "type": "Point", "coordinates": [ -139.2489, 63.2819 ] } },
{ "type": "Feature", "properties": { "riverName": null, "community": null, "stationID": "NaN", "stationID_NWS": "STRA2" }, "geometry": { "type": "Point", "coordinates": [ -135.3317, 57.1253 ] } },
{ "type": "Feature", "properties": { "riverName": null, "community": null, "stationID": "NaN", "stationID_NWS": "STTQ2" }, "geometry": { "type": "Point", "coordinates": [ -131.154444444440003, 57.900833333332997 ] } },
{ "type": "Feature", "properties": { "riverName": null, "community": null, "stationID": "NaN", "stationID_NWS": "SUDA2" }, "geometry": { "type": "Point", "coordinates": [ -147.515833333329994, 63.103888888889003 ] } },
{ "type": "Feature", "properties": { "riverName": null, "community": null, "stationID": "NaN", "stationID_NWS": "TALA2" }, "geometry": { "type": "Point", "coordinates": [ -152.0667, 65.1667 ] } },
{ "type": "Feature", "properties": { "riverName": null, "community": null, "stationID": "NaN", "stationID_NWS": "TATQ9" }, "geometry": { "type": "Point", "coordinates": [ -137.0514, 60.0706 ] } },
{ "type": "Feature", "properties": { "riverName": null, "community": null, "stationID": "NaN", "stationID_NWS": "TAZA2" }, "geometry": { "type": "Point", "coordinates": [ -145.4261, 62.0556 ] } },
{ "type": "Feature", "properties": { "riverName": null, "community": null, "stationID": "NaN", "stationID_NWS": "TKTA2" }, "geometry": { "type": "Point", "coordinates": [ -150.07, 62.2 ] } },
{ "type": "Feature", "properties": { "riverName": null, "community": null, "stationID": "NaN", "stationID_NWS": "TLNA2" }, "geometry": { "type": "Point", "coordinates": [ -142.6442, 63.3167 ] } },
{ "type": "Feature", "properties": { "riverName": null, "community": null, "stationID": "NaN", "stationID_NWS": "TMRA2" }, "geometry": { "type": "Point", "coordinates": [ -148.9884, 60.8451 ] } },
{ "type": "Feature", "properties": { "riverName": null, "community": null, "stationID": "NaN", "stationID_NWS": "TNUA2" }, "geometry": { "type": "Point", "coordinates": [ -165.26916666666699, 60.578055555555601 ] } },
{ "type": "Feature", "properties": { "riverName": null, "community": null, "stationID": "NaN", "stationID_NWS": "TOGA2" }, "geometry": { "type": "Point", "coordinates": [ -160.198611111111006, 59.2772222222222 ] } },
{ "type": "Feature", "properties": { "riverName": null, "community": null, "stationID": "NaN", "stationID_NWS": "TONA2" }, "geometry": { "type": "Point", "coordinates": [ -145.1, 61.39 ] } },
{ "type": "Feature", "properties": { "riverName": null, "community": null, "stationID": "NaN", "stationID_NWS": "UBLA2" }, "geometry": { "type": "Point", "coordinates": [ -151.296944444443994, 70.2430555555556 ] } },
{ "type": "Feature", "properties": { "riverName": null, "community": null, "stationID": "NaN", "stationID_NWS": "WALA2" }, "geometry": { "type": "Point", "coordinates": [ -168.091388888889014, 65.609444444444406 ] } },
{ "type": "Feature", "properties": { "riverName": null, "community": null, "stationID": "NaN", "stationID_NWS": "WCSA2" }, "geometry": { "type": "Point", "coordinates": [ -135.483888888889993, 59.528333333333002 ] } },
{ "type": "Feature", "properties": { "riverName": null, "community": null, "stationID": "NaN", "stationID_NWS": "WDCA2" }, "geometry": { "type": "Point", "coordinates": [ -141.5621, 64.1123 ] } },
{ "type": "Feature", "properties": { "riverName": null, "community": null, "stationID": "NaN", "stationID_NWS": "WHRQ9" }, "geometry": { "type": "Point", "coordinates": [ -140.5333, 61.9333 ] } },
{ "type": "Feature", "properties": { "riverName": null, "community": null, "stationID": "NaN", "stationID_NWS": "WILA2" }, "geometry": { "type": "Point", "coordinates": [ -149.43, 61.46 ] } },
{ "type": "Feature", "properties": { "riverName": null, "community": null, "stationID": "NaN", "stationID_NWS": "YDAQ9" }, "geometry": { "type": "Point", "coordinates": [ -139.13, 64.05 ] } },
{ "type": "Feature", "properties": { "riverName": null, "community": null, "stationID": "NaN", "stationID_NWS": "YLKA2" }, "geometry": { "type": "Point", "coordinates": [ -150.9181, 61.9003 ] } },
{ "type": "Feature", "properties": { "riverName": null, "community": null, "stationID": "NaN", "stationID_NWS": "YWRQ9" }, "geometry": { "type": "Point", "coordinates": [ -139.4944, 63.0839 ] } },
{ "type": "Feature", "properties": { "riverName": "Chena River ", "community": "Fairbanks", "stationID": "15514000", "stationID_NWS": null }, "geometry": { "type": "Point", "coordinates": [ -147.838888888887993, 64.78277 ] } },
{ "type": "Feature", "properties": { "riverName": "Tanana River At  Fairbanks", "community": "Fairbanks", "stationID": "15485500", "stationID_NWS": null }, "geometry": { "type": "Point", "coordinates": [ -147.838889, 64.792778 ] } },
{ "type": "Feature", "properties": { "riverName": "Tanana River at Nenana", "community": "Nenana", "stationID": "15515500", "stationID_NWS": null }, "geometry": { "type": "Point", "coordinates": [ -149.090556, 64.558056 ] } },
{ "type": "Feature", "properties": { "riverName": "Hula hula", "community": null, "stationID": "15980000", "stationID_NWS": null }, "geometry": { "type": "Point", "coordinates": [ -144.19833333, 69.70388889 ] } },
{ "type": "Feature", "properties": { "riverName": "Jago - gaged by Beaufort Lagoon LTER", "community": null, "stationID": "", "stationID_NWS": null }, "geometry": { "type": "Point", "coordinates": [ -156.78861, 71.29055 ] } },
{ "type": "Feature", "properties": { "riverName": "Atigun River below Galbraith Lake", "community": null, "stationID": "15905100", "stationID_NWS": null }, "geometry": { "type": "Point", "coordinates": [ -149.130877, 68.512698 ] } },
{ "type": "Feature", "properties": { "riverName": "Kuparuk River near Deadhorse", "community": null, "stationID": "15896000", "stationID_NWS": null }, "geometry": { "type": "Point", "coordinates": [ -149.031269, 70.214722 ] } },
{ "type": "Feature", "properties": { "riverName": "Meade River at Atkasuk", "community": null, "stationID": "15803000", "stationID_NWS": null }, "geometry": { "type": "Point", "coordinates": [ -157.38666, 70.496651 ] } },
{ "type": "Feature", "properties": { "riverName": "Sagavanitktok River ", "community": null, "stationID": "15908000", "stationID_NWS": null }, "geometry": { "type": "Point", "coordinates": [ -148.681854, 69.953885 ] } },
{ "type": "Feature", "properties": { "riverName": "Kobuk River near Kiana ", "community": null, "stationID": "15744500", "stationID_NWS": null }, "geometry": { "type": "Point", "coordinates": [ -160.185407, 66.963338 ] } },
{ "type": "Feature", "properties": { "riverName": "Niukluk River", "community": null, "stationID": "15580095", "stationID_NWS": null }, "geometry": { "type": "Point", "coordinates": [ -163.678092, 64.893214 ] } },
{ "type": "Feature", "properties": { "riverName": "Wulik River", "community": null, "stationID": "15747000", "stationID_NWS": null }, "geometry": { "type": "Point", "coordinates": [ -164.281305, 67.784952 ] } },
{ "type": "Feature", "properties": { "riverName": "Yukon River at Pilot Station", "community": null, "stationID": "15565447", "stationID_NWS": null }, "geometry": { "type": "Point", "coordinates": [ -162.883333, 61.936111 ] } },
{ "type": "Feature", "properties": { "riverName": "Colville near Umiat", "community": null, "stationID": "15875000", "stationID_NWS": null }, "geometry": { "type": "Point", "coordinates": [ -152.144167, 69.366944 ] } },
{ "type": "Feature", "properties": { "riverName": null, "community": null, "stationID": "15008000", "stationID_NWS": null }, "geometry": { "type": "Point", "coordinates": [ -130.066982299663664, 56.025814999870065 ] } },
{ "type": "Feature", "properties": { "riverName": null, "community": null, "stationID": "15009000", "stationID_NWS": null }, "geometry": { "type": "Point", "coordinates": [ -130.183369299355491, 55.833028570005332 ] } },
{ "type": "Feature", "properties": { "riverName": null, "community": null, "stationID": "15011870", "stationID_NWS": null }, "geometry": { "type": "Point", "coordinates": [ -130.462250400049101, 55.413842499562968 ] } },
{ "type": "Feature", "properties": { "riverName": null, "community": null, "stationID": "15011880", "stationID_NWS": null }, "geometry": { "type": "Point", "coordinates": [ -130.450582399922723, 55.353287400053858 ] } },
{ "type": "Feature", "properties": { "riverName": null, "community": null, "stationID": "15011894", "stationID_NWS": null }, "geometry": { "type": "Point", "coordinates": [ -130.562806299252117, 55.4257816902863 ] } },
{ "type": "Feature", "properties": { "riverName": null, "community": null, "stationID": "15015595", "stationID_NWS": null }, "geometry": { "type": "Point", "coordinates": [ -130.881986399193266, 56.240206200007556 ] } },
{ "type": "Feature", "properties": { "riverName": null, "community": null, "stationID": "15019990", "stationID_NWS": null }, "geometry": { "type": "Point", "coordinates": [ -131.508362199450914, 56.199641500299748 ] } },
{ "type": "Feature", "properties": { "riverName": null, "community": null, "stationID": "15020500", "stationID_NWS": null }, "geometry": { "type": "Point", "coordinates": [ -131.255036500153835, 56.241307900436922 ] } },
{ "type": "Feature", "properties": { "riverName": null, "community": null, "stationID": "15022000", "stationID_NWS": null }, "geometry": { "type": "Point", "coordinates": [ -131.638358500665476, 56.212977799877763 ] } },
{ "type": "Feature", "properties": { "riverName": null, "community": null, "stationID": "15024750", "stationID_NWS": null }, "geometry": { "type": "Point", "coordinates": [ -131.972232600223123, 56.660778199701859 ] } },
{ "type": "Feature", "properties": { "riverName": null, "community": null, "stationID": "15024800", "stationID_NWS": null }, "geometry": { "type": "Point", "coordinates": [ -132.131965299780774, 56.707721879800609 ] } },
{ "type": "Feature", "properties": { "riverName": null, "community": null, "stationID": "15028300", "stationID_NWS": null }, "geometry": { "type": "Point", "coordinates": [ -133.111720999806323, 57.172993980252286 ] } },
{ "type": "Feature", "properties": { "riverName": null, "community": null, "stationID": "15039900", "stationID_NWS": null }, "geometry": { "type": "Point", "coordinates": [ -133.983410599971251, 58.24856607992642 ] } },
{ "type": "Feature", "properties": { "riverName": null, "community": null, "stationID": "15040000", "stationID_NWS": null }, "geometry": { "type": "Point", "coordinates": [ -134.042025599763519, 58.227453000109691 ] } },
{ "type": "Feature", "properties": { "riverName": null, "community": null, "stationID": "15041200", "stationID_NWS": null }, "geometry": { "type": "Point", "coordinates": [ -133.70174320061443, 58.53829827980563 ] } },
{ "type": "Feature", "properties": { "riverName": null, "community": null, "stationID": "15049900", "stationID_NWS": null }, "geometry": { "type": "Point", "coordinates": [ -134.388435999420722, 58.306895200291279 ] } },
{ "type": "Feature", "properties": { "riverName": null, "community": null, "stationID": "15050000", "stationID_NWS": null }, "geometry": { "type": "Point", "coordinates": [ -134.403158999031774, 58.306617380248639 ] } },
{ "type": "Feature", "properties": { "riverName": null, "community": null, "stationID": "15051008", "stationID_NWS": null }, "geometry": { "type": "Point", "coordinates": [ -134.45788470092711, 58.332729399698145 ] } },
{ "type": "Feature", "properties": { "riverName": null, "community": null, "stationID": "15051010", "stationID_NWS": null }, "geometry": { "type": "Point", "coordinates": [ -134.467607400003686, 58.33217378001774 ] } },
{ "type": "Feature", "properties": { "riverName": null, "community": null, "stationID": "15052000", "stationID_NWS": null }, "geometry": { "type": "Point", "coordinates": [ -134.422606200222305, 58.391342899674136 ] } },
{ "type": "Feature", "properties": { "riverName": null, "community": null, "stationID": "15052009", "stationID_NWS": null }, "geometry": { "type": "Point", "coordinates": [ -134.479830600608551, 58.36550850036123 ] } },
{ "type": "Feature", "properties": { "riverName": null, "community": null, "stationID": "15052475", "stationID_NWS": null }, "geometry": { "type": "Point", "coordinates": [ -134.577891799795253, 58.366062200194378 ] } },
{ "type": "Feature", "properties": { "riverName": null, "community": null, "stationID": "15052495", "stationID_NWS": null }, "geometry": { "type": "Point", "coordinates": [ -134.525389599524743, 58.423287100004231 ] } },
{ "type": "Feature", "properties": { "riverName": null, "community": null, "stationID": "15052500", "stationID_NWS": null }, "geometry": { "type": "Point", "coordinates": [ -134.574559199910851, 58.429397200433669 ] } },
{ "type": "Feature", "properties": { "riverName": null, "community": null, "stationID": "15052800", "stationID_NWS": null }, "geometry": { "type": "Point", "coordinates": [ -134.611227600073903, 58.397729000345045 ] } },
{ "type": "Feature", "properties": { "riverName": null, "community": null, "stationID": "15053200", "stationID_NWS": null }, "geometry": { "type": "Point", "coordinates": [ -134.579002999880487, 58.374951400356089 ] } },
{ "type": "Feature", "properties": { "riverName": null, "community": null, "stationID": "15055500", "stationID_NWS": null }, "geometry": { "type": "Point", "coordinates": [ -134.710401000062262, 58.851623869984536 ] } },
{ "type": "Feature", "properties": { "riverName": null, "community": null, "stationID": "15056030", "stationID_NWS": null }, "geometry": { "type": "Point", "coordinates": [ -135.185708000151863, 59.004948600006188 ] } },
{ "type": "Feature", "properties": { "riverName": null, "community": null, "stationID": "15056070", "stationID_NWS": null }, "geometry": { "type": "Point", "coordinates": [ -135.333495999856467, 59.297172799860576 ] } },
{ "type": "Feature", "properties": { "riverName": null, "community": null, "stationID": "15056095", "stationID_NWS": null }, "geometry": { "type": "Point", "coordinates": [ -135.179052800636157, 59.526617300207484 ] } },
{ "type": "Feature", "properties": { "riverName": null, "community": null, "stationID": "15056100", "stationID_NWS": null }, "geometry": { "type": "Point", "coordinates": [ -135.304166700500673, 59.465833300236973 ] } },
{ "type": "Feature", "properties": { "riverName": null, "community": null, "stationID": "15056210", "stationID_NWS": null }, "geometry": { "type": "Point", "coordinates": [ -135.346275200077145, 59.511618300225798 ] } },
{ "type": "Feature", "properties": { "riverName": null, "community": null, "stationID": "15056280", "stationID_NWS": null }, "geometry": { "type": "Point", "coordinates": [ -135.662663799136283, 59.423842399909923 ] } },
{ "type": "Feature", "properties": { "riverName": null, "community": null, "stationID": "15056500", "stationID_NWS": null }, "geometry": { "type": "Point", "coordinates": [ -135.931019800838641, 59.414947189675964 ] } },
{ "type": "Feature", "properties": { "riverName": null, "community": null, "stationID": "15056560", "stationID_NWS": null }, "geometry": { "type": "Point", "coordinates": [ -135.998796999499632, 59.41272599973712 ] } },
{ "type": "Feature", "properties": { "riverName": null, "community": null, "stationID": "15057580", "stationID_NWS": null }, "geometry": { "type": "Point", "coordinates": [ -135.602097400475287, 58.443274499918473 ] } },
{ "type": "Feature", "properties": { "riverName": null, "community": null, "stationID": "15057596", "stationID_NWS": null }, "geometry": { "type": "Point", "coordinates": [ -135.741830200335528, 58.444657280185808 ] } },
{ "type": "Feature", "properties": { "riverName": null, "community": null, "stationID": "15058700", "stationID_NWS": null }, "geometry": { "type": "Point", "coordinates": [ -131.70057359974183, 55.342430200353704 ] } },
{ "type": "Feature", "properties": { "riverName": null, "community": null, "stationID": "15067900", "stationID_NWS": null }, "geometry": { "type": "Point", "coordinates": [ -131.556131900019238, 55.41354029998891 ] } },
{ "type": "Feature", "properties": { "riverName": null, "community": null, "stationID": "15068000", "stationID_NWS": null }, "geometry": { "type": "Point", "coordinates": [ -131.512799200388343, 55.425762070336894 ] } },
{ "type": "Feature", "properties": { "riverName": null, "community": null, "stationID": "15068040", "stationID_NWS": null }, "geometry": { "type": "Point", "coordinates": [ -131.5244657993087, 55.51909056984082 ] } },
{ "type": "Feature", "properties": { "riverName": null, "community": null, "stationID": "15072000", "stationID_NWS": null }, "geometry": { "type": "Point", "coordinates": [ -131.195583300500203, 55.391603799790573 ] } },
{ "type": "Feature", "properties": { "riverName": null, "community": null, "stationID": "15081495", "stationID_NWS": null }, "geometry": { "type": "Point", "coordinates": [ -132.968895900266403, 55.732408400432739 ] } },
{ "type": "Feature", "properties": { "riverName": null, "community": null, "stationID": "15081497", "stationID_NWS": null }, "geometry": { "type": "Point", "coordinates": [ -133.110322199918926, 55.801028700408494 ] } },
{ "type": "Feature", "properties": { "riverName": null, "community": null, "stationID": "15081500", "stationID_NWS": null }, "geometry": { "type": "Point", "coordinates": [ -133.134492799181686, 55.815474470289026 ] } },
{ "type": "Feature", "properties": { "riverName": null, "community": null, "stationID": "15081510", "stationID_NWS": null }, "geometry": { "type": "Point", "coordinates": [ -133.246733899578771, 55.745473200351469 ] } },
{ "type": "Feature", "properties": { "riverName": null, "community": null, "stationID": "15081580", "stationID_NWS": null }, "geometry": { "type": "Point", "coordinates": [ -132.877482299950231, 55.556583600460442 ] } },
{ "type": "Feature", "properties": { "riverName": null, "community": null, "stationID": "15081610", "stationID_NWS": null }, "geometry": { "type": "Point", "coordinates": [ -132.956384500046397, 55.534647600409869 ] } },
{ "type": "Feature", "properties": { "riverName": null, "community": null, "stationID": "15081614", "stationID_NWS": null }, "geometry": { "type": "Point", "coordinates": [ -133.01861969935274, 55.556872869848185 ] } },
{ "type": "Feature", "properties": { "riverName": null, "community": null, "stationID": "15081995", "stationID_NWS": null }, "geometry": { "type": "Point", "coordinates": [ -132.582216399338762, 55.217702699804299 ] } },
{ "type": "Feature", "properties": { "riverName": null, "community": null, "stationID": "15083500", "stationID_NWS": null }, "geometry": { "type": "Point", "coordinates": [ -132.172476199422334, 54.946324899689884 ] } },
{ "type": "Feature", "properties": { "riverName": null, "community": null, "stationID": "15085100", "stationID_NWS": null }, "geometry": { "type": "Point", "coordinates": [ -132.408626800353346, 55.395194400510732 ] } },
{ "type": "Feature", "properties": { "riverName": null, "community": null, "stationID": "15085800", "stationID_NWS": null }, "geometry": { "type": "Point", "coordinates": [ -132.676926000016664, 55.490198999592266 ] } },
{ "type": "Feature", "properties": { "riverName": null, "community": null, "stationID": "15085900", "stationID_NWS": null }, "geometry": { "type": "Point", "coordinates": [ -132.597213399996036, 55.53047219992817 ] } },
{ "type": "Feature", "properties": { "riverName": null, "community": null, "stationID": "15086600", "stationID_NWS": null }, "geometry": { "type": "Point", "coordinates": [ -133.150605300276027, 56.131311199661987 ] } },
{ "type": "Feature", "properties": { "riverName": null, "community": null, "stationID": "15086960", "stationID_NWS": null }, "geometry": { "type": "Point", "coordinates": [ -132.493356599085445, 56.411875700246796 ] } },
{ "type": "Feature", "properties": { "riverName": null, "community": null, "stationID": "15087300", "stationID_NWS": null }, "geometry": { "type": "Point", "coordinates": [ -132.923942500506314, 56.681869300132355 ] } },
{ "type": "Feature", "properties": { "riverName": null, "community": null, "stationID": "15087500", "stationID_NWS": null }, "geometry": { "type": "Point", "coordinates": [ -132.874773399938221, 56.793540299942372 ] } },
{ "type": "Feature", "properties": { "riverName": null, "community": null, "stationID": "15087545", "stationID_NWS": null }, "geometry": { "type": "Point", "coordinates": [ -132.920333599625565, 56.777427689942002 ] } },
{ "type": "Feature", "properties": { "riverName": null, "community": null, "stationID": "15087565", "stationID_NWS": null }, "geometry": { "type": "Point", "coordinates": [ -133.930027800222462, 56.979027780202472 ] } },
{ "type": "Feature", "properties": { "riverName": null, "community": null, "stationID": "15087570", "stationID_NWS": null }, "geometry": { "type": "Point", "coordinates": [ -133.676733600415417, 56.872160670398003 ] } },
{ "type": "Feature", "properties": { "riverName": null, "community": null, "stationID": "15087590", "stationID_NWS": null }, "geometry": { "type": "Point", "coordinates": [ -133.737880999430132, 56.619091490145948 ] } },
{ "type": "Feature", "properties": { "riverName": null, "community": null, "stationID": "15087610", "stationID_NWS": null }, "geometry": { "type": "Point", "coordinates": [ -135.333427499548918, 57.25992429961159 ] } },
{ "type": "Feature", "properties": { "riverName": null, "community": null, "stationID": "15087618", "stationID_NWS": null }, "geometry": { "type": "Point", "coordinates": [ -135.333427699748654, 57.124916779867029 ] } },
{ "type": "Feature", "properties": { "riverName": null, "community": null, "stationID": "15087690", "stationID_NWS": null }, "geometry": { "type": "Point", "coordinates": [ -135.296762799230692, 57.066582469925173 ] } },
{ "type": "Feature", "properties": { "riverName": null, "community": null, "stationID": "15087700", "stationID_NWS": null }, "geometry": { "type": "Point", "coordinates": [ -135.316208499462903, 57.052971189862795 ] } },
{ "type": "Feature", "properties": { "riverName": null, "community": null, "stationID": "15087730", "stationID_NWS": null }, "geometry": { "type": "Point", "coordinates": [ -135.31954189947831, 57.053248999587488 ] } },
{ "type": "Feature", "properties": { "riverName": null, "community": null, "stationID": "15087735", "stationID_NWS": null }, "geometry": { "type": "Point", "coordinates": [ -135.321486499323356, 57.051026699903836 ] } },
{ "type": "Feature", "properties": { "riverName": null, "community": null, "stationID": "15088000", "stationID_NWS": null }, "geometry": { "type": "Point", "coordinates": [ -135.229540200541294, 57.051026699779136 ] } },
{ "type": "Feature", "properties": { "riverName": null, "community": null, "stationID": "15088200", "stationID_NWS": null }, "geometry": { "type": "Point", "coordinates": [ -135.16426349990752, 57.018803760225993 ] } },
{ "type": "Feature", "properties": { "riverName": null, "community": null, "stationID": "15093200", "stationID_NWS": null }, "geometry": { "type": "Point", "coordinates": [ -134.682327000230231, 56.298234499871178 ] } },
{ "type": "Feature", "properties": { "riverName": null, "community": null, "stationID": "15099900", "stationID_NWS": null }, "geometry": { "type": "Point", "coordinates": [ -134.887586200320897, 57.13104820010907 ] } },
{ "type": "Feature", "properties": { "riverName": null, "community": null, "stationID": "15100000", "stationID_NWS": null }, "geometry": { "type": "Point", "coordinates": [ -134.865641799944626, 57.142716200343131 ] } },
{ "type": "Feature", "properties": { "riverName": null, "community": null, "stationID": "15100500", "stationID_NWS": null }, "geometry": { "type": "Point", "coordinates": [ -134.942594599403918, 57.353827200284201 ] } },
{ "type": "Feature", "properties": { "riverName": null, "community": null, "stationID": "15100510", "stationID_NWS": null }, "geometry": { "type": "Point", "coordinates": [ -134.947594799680843, 57.356882669528723 ] } },
{ "type": "Feature", "properties": { "riverName": null, "community": null, "stationID": "15101490", "stationID_NWS": null }, "geometry": { "type": "Point", "coordinates": [ -134.633444800120088, 58.082998369642674 ] } },
{ "type": "Feature", "properties": { "riverName": null, "community": null, "stationID": "15101500", "stationID_NWS": null }, "geometry": { "type": "Point", "coordinates": [ -134.748729699090489, 58.087996870093633 ] } },
{ "type": "Feature", "properties": { "riverName": null, "community": null, "stationID": "15102200", "stationID_NWS": null }, "geometry": { "type": "Point", "coordinates": [ -134.4614756008516, 57.447443869944685 ] } },
{ "type": "Feature", "properties": { "riverName": null, "community": null, "stationID": "15106100", "stationID_NWS": null }, "geometry": { "type": "Point", "coordinates": [ -136.09460570084056, 57.704904999736208 ] } },
{ "type": "Feature", "properties": { "riverName": null, "community": null, "stationID": "15106920", "stationID_NWS": null }, "geometry": { "type": "Point", "coordinates": [ -135.186781899851439, 57.662434999839988 ] } },
{ "type": "Feature", "properties": { "riverName": null, "community": null, "stationID": "15106970", "stationID_NWS": null }, "geometry": { "type": "Point", "coordinates": [ -135.203446699342464, 57.692157479702317 ] } },
{ "type": "Feature", "properties": { "riverName": null, "community": null, "stationID": "15106980", "stationID_NWS": null }, "geometry": { "type": "Point", "coordinates": [ -135.223170499240439, 57.677990200245183 ] } },
{ "type": "Feature", "properties": { "riverName": null, "community": null, "stationID": "15107910", "stationID_NWS": null }, "geometry": { "type": "Point", "coordinates": [ -135.327058999636449, 57.865767899858987 ] } },
{ "type": "Feature", "properties": { "riverName": null, "community": null, "stationID": "15107920", "stationID_NWS": null }, "geometry": { "type": "Point", "coordinates": [ -135.26844599931357, 57.830213180308398 ] } },
{ "type": "Feature", "properties": { "riverName": null, "community": null, "stationID": "15108000", "stationID_NWS": null }, "geometry": { "type": "Point", "coordinates": [ -135.037613499667145, 57.84132769990272 ] } },
{ "type": "Feature", "properties": { "riverName": null, "community": null, "stationID": "15108800", "stationID_NWS": null }, "geometry": { "type": "Point", "coordinates": [ -134.412881298981375, 58.284394160250017 ] } },
{ "type": "Feature", "properties": { "riverName": null, "community": null, "stationID": "15109048", "stationID_NWS": null }, "geometry": { "type": "Point", "coordinates": [ -134.666783599782605, 58.283001800265033 ] } },
{ "type": "Feature", "properties": { "riverName": null, "community": null, "stationID": "15129000", "stationID_NWS": null }, "geometry": { "type": "Point", "coordinates": [ -138.083688000157395, 59.394711890184723 ] } },
{ "type": "Feature", "properties": { "riverName": null, "community": null, "stationID": "15129120", "stationID_NWS": null }, "geometry": { "type": "Point", "coordinates": [ -138.328408900610128, 59.190264189725454 ] } },
{ "type": "Feature", "properties": { "riverName": null, "community": null, "stationID": "15129500", "stationID_NWS": null }, "geometry": { "type": "Point", "coordinates": [ -139.494187700120449, 59.586366359787441 ] } },
{ "type": "Feature", "properties": { "riverName": null, "community": null, "stationID": "15129510", "stationID_NWS": null }, "geometry": { "type": "Point", "coordinates": [ -139.440019699660098, 59.570256500323993 ] } },
{ "type": "Feature", "properties": { "riverName": null, "community": null, "stationID": "15129600", "stationID_NWS": null }, "geometry": { "type": "Point", "coordinates": [ -139.745272900326711, 59.523587289913152 ] } },
{ "type": "Feature", "properties": { "riverName": null, "community": null, "stationID": "15195000", "stationID_NWS": null }, "geometry": { "type": "Point", "coordinates": [ -144.304757300640404, 60.341682200474644 ] } },
{ "type": "Feature", "properties": { "riverName": null, "community": null, "stationID": "15199500", "stationID_NWS": null }, "geometry": { "type": "Point", "coordinates": [ -144.648839799166552, 62.590696700143013 ] } },
{ "type": "Feature", "properties": { "riverName": null, "community": null, "stationID": "15200280", "stationID_NWS": null }, "geometry": { "type": "Point", "coordinates": [ -145.533015399826525, 62.520391799646369 ] } },
{ "type": "Feature", "properties": { "riverName": null, "community": null, "stationID": "15208000", "stationID_NWS": null }, "geometry": { "type": "Point", "coordinates": [ -145.186003000871466, 61.660903569834389 ] } },
{ "type": "Feature", "properties": { "riverName": null, "community": null, "stationID": "15209700", "stationID_NWS": null }, "geometry": { "type": "Point", "coordinates": [ -142.942625600255269, 61.433726560315641 ] } },
{ "type": "Feature", "properties": { "riverName": null, "community": null, "stationID": "15209750", "stationID_NWS": null }, "geometry": { "type": "Point", "coordinates": [ -142.88374389893869, 61.493729400362639 ] } },
{ "type": "Feature", "properties": { "riverName": null, "community": null, "stationID": "15209800", "stationID_NWS": null }, "geometry": { "type": "Point", "coordinates": [ -142.932347800738171, 61.434004590130471 ] } },
{ "type": "Feature", "properties": { "riverName": null, "community": null, "stationID": "15212000", "stationID_NWS": null }, "geometry": { "type": "Point", "coordinates": [ -144.45792319978429, 61.465078570182548 ] } },
{ "type": "Feature", "properties": { "riverName": null, "community": null, "stationID": "15214000", "stationID_NWS": null }, "geometry": { "type": "Point", "coordinates": [ -144.746713500238883, 60.671143199991114 ] } },
{ "type": "Feature", "properties": { "riverName": null, "community": null, "stationID": "15215900", "stationID_NWS": null }, "geometry": { "type": "Point", "coordinates": [ -145.380614800859547, 60.532797300094934 ] } },
{ "type": "Feature", "properties": { "riverName": null, "community": null, "stationID": "15215990", "stationID_NWS": null }, "geometry": { "type": "Point", "coordinates": [ -145.791717300545372, 60.518625299624063 ] } },
{ "type": "Feature", "properties": { "riverName": null, "community": null, "stationID": "15215992", "stationID_NWS": null }, "geometry": { "type": "Point", "coordinates": [ -145.76338080030115, 60.523350059773044 ] } },
{ "type": "Feature", "properties": { "riverName": null, "community": null, "stationID": "15216000", "stationID_NWS": null }, "geometry": { "type": "Point", "coordinates": [ -145.62002199917427, 60.586675370173559 ] } },
{ "type": "Feature", "properties": { "riverName": null, "community": null, "stationID": "15216003", "stationID_NWS": null }, "geometry": { "type": "Point", "coordinates": [ -145.63086549975327, 60.557510100298892 ] } },
{ "type": "Feature", "properties": { "riverName": null, "community": null, "stationID": "15216008", "stationID_NWS": null }, "geometry": { "type": "Point", "coordinates": [ -145.716151999595667, 60.536403799909934 ] } },
{ "type": "Feature", "properties": { "riverName": null, "community": null, "stationID": "15219000", "stationID_NWS": null }, "geometry": { "type": "Point", "coordinates": [ -146.174224999792273, 60.760865900358908 ] } },
{ "type": "Feature", "properties": { "riverName": null, "community": null, "stationID": "15223900", "stationID_NWS": null }, "geometry": { "type": "Point", "coordinates": [ -146.529231600657141, 60.949185979670609 ] } },
{ "type": "Feature", "properties": { "riverName": null, "community": null, "stationID": "15224000", "stationID_NWS": null }, "geometry": { "type": "Point", "coordinates": [ -146.563121000657475, 60.943906199963955 ] } },
{ "type": "Feature", "properties": { "riverName": null, "community": null, "stationID": "15225945", "stationID_NWS": null }, "geometry": { "type": "Point", "coordinates": [ -146.353683899153879, 61.081141670361198 ] } },
{ "type": "Feature", "properties": { "riverName": null, "community": null, "stationID": "15225996", "stationID_NWS": null }, "geometry": { "type": "Point", "coordinates": [ -146.304793799976608, 61.083087479609794 ] } },
{ "type": "Feature", "properties": { "riverName": null, "community": null, "stationID": "15225997", "stationID_NWS": null }, "geometry": { "type": "Point", "coordinates": [ -146.30507039961546, 61.078642699605993 ] } },
{ "type": "Feature", "properties": { "riverName": null, "community": null, "stationID": "15225998", "stationID_NWS": null }, "geometry": { "type": "Point", "coordinates": [ -146.305904800372019, 61.082531900143401 ] } },
{ "type": "Feature", "properties": { "riverName": null, "community": null, "stationID": "15226620", "stationID_NWS": null }, "geometry": { "type": "Point", "coordinates": [ -145.906110999910766, 61.067083299678956 ] } },
{ "type": "Feature", "properties": { "riverName": null, "community": null, "stationID": "15227090", "stationID_NWS": null }, "geometry": { "type": "Point", "coordinates": [ -146.171583299408582, 61.148888889925921 ] } },
{ "type": "Feature", "properties": { "riverName": null, "community": null, "stationID": "15236000", "stationID_NWS": null }, "geometry": { "type": "Point", "coordinates": [ -148.2406880004431, 60.961089470077702 ] } },
{ "type": "Feature", "properties": { "riverName": null, "community": null, "stationID": "15236210", "stationID_NWS": null }, "geometry": { "type": "Point", "coordinates": [ -148.690673000836284, 60.772197200472597 ] } },
{ "type": "Feature", "properties": { "riverName": null, "community": null, "stationID": "15236900", "stationID_NWS": null }, "geometry": { "type": "Point", "coordinates": [ -148.89876240015434, 60.369958580249552 ] } },
{ "type": "Feature", "properties": { "riverName": null, "community": null, "stationID": "15237020", "stationID_NWS": null }, "geometry": { "type": "Point", "coordinates": [ -148.094289900786805, 60.518310800374877 ] } },
{ "type": "Feature", "properties": { "riverName": null, "community": null, "stationID": "15237360", "stationID_NWS": null }, "geometry": { "type": "Point", "coordinates": [ -147.885369000790007, 59.817398899921699 ] } },
{ "type": "Feature", "properties": { "riverName": null, "community": null, "stationID": "15237730", "stationID_NWS": null }, "geometry": { "type": "Point", "coordinates": [ -149.375483500345553, 60.197773890315617 ] } },
{ "type": "Feature", "properties": { "riverName": null, "community": null, "stationID": "1523849020", "stationID_NWS": null }, "geometry": { "type": "Point", "coordinates": [ -149.466309999619, 60.099159300432888 ] } },
{ "type": "Feature", "properties": { "riverName": null, "community": null, "stationID": "15238500", "stationID_NWS": null }, "geometry": { "type": "Point", "coordinates": [ -149.445198900296276, 60.098048500414919 ] } },
{ "type": "Feature", "properties": { "riverName": null, "community": null, "stationID": "15238600", "stationID_NWS": null }, "geometry": { "type": "Point", "coordinates": [ -149.45436359949565, 60.068881199925158 ] } },
{ "type": "Feature", "properties": { "riverName": null, "community": null, "stationID": "15238648", "stationID_NWS": null }, "geometry": { "type": "Point", "coordinates": [ -150.705446800511595, 59.68385739995815 ] } },
{ "type": "Feature", "properties": { "riverName": null, "community": null, "stationID": "15238653", "stationID_NWS": null }, "geometry": { "type": "Point", "coordinates": [ -150.679879700536929, 59.599135369901063 ] } },
{ "type": "Feature", "properties": { "riverName": null, "community": null, "stationID": "15238820", "stationID_NWS": null }, "geometry": { "type": "Point", "coordinates": [ -151.64711059982352, 59.479939499563571 ] } },
{ "type": "Feature", "properties": { "riverName": null, "community": null, "stationID": "15238978", "stationID_NWS": null }, "geometry": { "type": "Point", "coordinates": [ -150.841564499478807, 59.745240900334736 ] } },
{ "type": "Feature", "properties": { "riverName": null, "community": null, "stationID": "15238982", "stationID_NWS": null }, "geometry": { "type": "Point", "coordinates": [ -150.899061899580374, 59.738015969542658 ] } },
{ "type": "Feature", "properties": { "riverName": null, "community": null, "stationID": "15238984", "stationID_NWS": null }, "geometry": { "type": "Point", "coordinates": [ -150.956008499225049, 59.752180499677515 ] } },
{ "type": "Feature", "properties": { "riverName": null, "community": null, "stationID": "15238985", "stationID_NWS": null }, "geometry": { "type": "Point", "coordinates": [ -150.955453500797944, 59.754958399698495 ] } },
{ "type": "Feature", "properties": { "riverName": null, "community": null, "stationID": "15238986", "stationID_NWS": null }, "geometry": { "type": "Point", "coordinates": [ -150.955176999896452, 59.761736459964027 ] } },
{ "type": "Feature", "properties": { "riverName": null, "community": null, "stationID": "15238990", "stationID_NWS": null }, "geometry": { "type": "Point", "coordinates": [ -150.704616000485885, 59.699968800367834 ] } },
{ "type": "Feature", "properties": { "riverName": null, "community": null, "stationID": "15239001", "stationID_NWS": null }, "geometry": { "type": "Point", "coordinates": [ -150.852677800003448, 59.757740700309583 ] } },
{ "type": "Feature", "properties": { "riverName": null, "community": null, "stationID": "15239050", "stationID_NWS": null }, "geometry": { "type": "Point", "coordinates": [ -150.756294799839054, 59.777745680345411 ] } },
{ "type": "Feature", "properties": { "riverName": null, "community": null, "stationID": "15239060", "stationID_NWS": null }, "geometry": { "type": "Point", "coordinates": [ -150.865463199723166, 59.797741380009576 ] } },
{ "type": "Feature", "properties": { "riverName": null, "community": null, "stationID": "15239070", "stationID_NWS": null }, "geometry": { "type": "Point", "coordinates": [ -150.884907900215325, 59.801073990041139 ] } },
{ "type": "Feature", "properties": { "riverName": null, "community": null, "stationID": "15239500", "stationID_NWS": null }, "geometry": { "type": "Point", "coordinates": [ -151.345183700411809, 59.707727700410921 ] } },
{ "type": "Feature", "properties": { "riverName": null, "community": null, "stationID": "15239900", "stationID_NWS": null }, "geometry": { "type": "Point", "coordinates": [ -151.755212399990796, 59.746608970136514 ] } },
{ "type": "Feature", "properties": { "riverName": null, "community": null, "stationID": "15241600", "stationID_NWS": null }, "geometry": { "type": "Point", "coordinates": [ -151.664916700091055, 60.048416670386608 ] } },
{ "type": "Feature", "properties": { "riverName": null, "community": null, "stationID": "15243900", "stationID_NWS": null }, "geometry": { "type": "Point", "coordinates": [ -149.346039700100249, 60.294439499969265 ] } },
{ "type": "Feature", "properties": { "riverName": null, "community": null, "stationID": "15258000", "stationID_NWS": null }, "geometry": { "type": "Point", "coordinates": [ -149.809920300201554, 60.492192689873704 ] } },
{ "type": "Feature", "properties": { "riverName": null, "community": null, "stationID": "15261000", "stationID_NWS": null }, "geometry": { "type": "Point", "coordinates": [ -149.882710999205528, 60.479979499854409 ] } },
{ "type": "Feature", "properties": { "riverName": null, "community": null, "stationID": "15266110", "stationID_NWS": null }, "geometry": { "type": "Point", "coordinates": [ -150.601090000917651, 60.466098999855383 ] } },
{ "type": "Feature", "properties": { "riverName": null, "community": null, "stationID": "15266150", "stationID_NWS": null }, "geometry": { "type": "Point", "coordinates": [ -150.632759199872623, 60.490543900155487 ] } },
{ "type": "Feature", "properties": { "riverName": null, "community": null, "stationID": "15266300", "stationID_NWS": null }, "geometry": { "type": "Point", "coordinates": [ -151.08166750088327, 60.476928900163507 ] } },
{ "type": "Feature", "properties": { "riverName": null, "community": null, "stationID": "15267900", "stationID_NWS": null }, "geometry": { "type": "Point", "coordinates": [ -149.6391159997616, 60.893871989952359 ] } },
{ "type": "Feature", "properties": { "riverName": null, "community": null, "stationID": "15271000", "stationID_NWS": null }, "geometry": { "type": "Point", "coordinates": [ -149.427443000225452, 60.82027266980711 ] } },
{ "type": "Feature", "properties": { "riverName": null, "community": null, "stationID": "15272280", "stationID_NWS": null }, "geometry": { "type": "Point", "coordinates": [ -148.841031900044129, 60.784717790103841 ] } },
{ "type": "Feature", "properties": { "riverName": null, "community": null, "stationID": "15272380", "stationID_NWS": null }, "geometry": { "type": "Point", "coordinates": [ -148.924107400764882, 60.897483299630707 ] } },
{ "type": "Feature", "properties": { "riverName": null, "community": null, "stationID": "15273045", "stationID_NWS": null }, "geometry": { "type": "Point", "coordinates": [ -149.825803199726209, 61.083612370254336 ] } },
{ "type": "Feature", "properties": { "riverName": null, "community": null, "stationID": "15273050", "stationID_NWS": null }, "geometry": { "type": "Point", "coordinates": [ -149.82719200024556, 61.081112289636373 ] } },
{ "type": "Feature", "properties": { "riverName": null, "community": null, "stationID": "15273095", "stationID_NWS": null }, "geometry": { "type": "Point", "coordinates": [ -149.763579299714479, 61.08222420040012 ] } },
{ "type": "Feature", "properties": { "riverName": null, "community": null, "stationID": "15273105", "stationID_NWS": null }, "geometry": { "type": "Point", "coordinates": [ -149.829136000710662, 61.0758343599895 ] } },
{ "type": "Feature", "properties": { "riverName": null, "community": null, "stationID": "15273900", "stationID_NWS": null }, "geometry": { "type": "Point", "coordinates": [ -149.722195599989192, 61.147225599602336 ] } },
{ "type": "Feature", "properties": { "riverName": null, "community": null, "stationID": "15274000", "stationID_NWS": null }, "geometry": { "type": "Point", "coordinates": [ -149.772752699648606, 61.166670959880655 ] } },
{ "type": "Feature", "properties": { "riverName": null, "community": null, "stationID": "15274300", "stationID_NWS": null }, "geometry": { "type": "Point", "coordinates": [ -149.764141599644745, 61.168893400102007 ] } },
{ "type": "Feature", "properties": { "riverName": null, "community": null, "stationID": "15274550", "stationID_NWS": null }, "geometry": { "type": "Point", "coordinates": [ -149.873865000219695, 61.153057599586404 ] } },
{ "type": "Feature", "properties": { "riverName": null, "community": null, "stationID": "15274600", "stationID_NWS": null }, "geometry": { "type": "Point", "coordinates": [ -149.925533699459237, 61.138890599730999 ] } },
{ "type": "Feature", "properties": { "riverName": null, "community": null, "stationID": "15274798", "stationID_NWS": null }, "geometry": { "type": "Point", "coordinates": [ -149.717477600003406, 61.205283199790379 ] } },
{ "type": "Feature", "properties": { "riverName": null, "community": null, "stationID": "15275100", "stationID_NWS": null }, "geometry": { "type": "Point", "coordinates": [ -149.897482600660737, 61.204725779623544 ] } },
{ "type": "Feature", "properties": { "riverName": null, "community": null, "stationID": "15276000", "stationID_NWS": null }, "geometry": { "type": "Point", "coordinates": [ -149.637200800691772, 61.225006190044958 ] } },
{ "type": "Feature", "properties": { "riverName": null, "community": null, "stationID": "15276200", "stationID_NWS": null }, "geometry": { "type": "Point", "coordinates": [ -149.698035300220766, 61.238340080324839 ] } },
{ "type": "Feature", "properties": { "riverName": null, "community": null, "stationID": "15276320", "stationID_NWS": null }, "geometry": { "type": "Point", "coordinates": [ -149.724146900438114, 61.242784599814229 ] } },
{ "type": "Feature", "properties": { "riverName": null, "community": null, "stationID": "15276570", "stationID_NWS": null }, "geometry": { "type": "Point", "coordinates": [ -149.846369600688803, 61.224170899593055 ] } },
{ "type": "Feature", "properties": { "riverName": null, "community": null, "stationID": "15277100", "stationID_NWS": null }, "geometry": { "type": "Point", "coordinates": [ -149.561101700496636, 61.307233500409865 ] } },
{ "type": "Feature", "properties": { "riverName": null, "community": null, "stationID": "15277410", "stationID_NWS": null }, "geometry": { "type": "Point", "coordinates": [ -149.491102299827674, 61.418347169811696 ] } },
{ "type": "Feature", "properties": { "riverName": null, "community": null, "stationID": "15277600", "stationID_NWS": null }, "geometry": { "type": "Point", "coordinates": [ -148.955546899335047, 61.311678599878299 ] } },
{ "type": "Feature", "properties": { "riverName": null, "community": null, "stationID": "15277800", "stationID_NWS": null }, "geometry": { "type": "Point", "coordinates": [ -148.975823599799867, 61.297788300430369 ] } },
{ "type": "Feature", "properties": { "riverName": null, "community": null, "stationID": "15280200", "stationID_NWS": null }, "geometry": { "type": "Point", "coordinates": [ -149.369438700139909, 61.449739079922139 ] } },
{ "type": "Feature", "properties": { "riverName": null, "community": null, "stationID": "15280900", "stationID_NWS": null }, "geometry": { "type": "Point", "coordinates": [ -148.445558000035078, 61.419052990444868 ] } },
{ "type": "Feature", "properties": { "riverName": null, "community": null, "stationID": "15281000", "stationID_NWS": null }, "geometry": { "type": "Point", "coordinates": [ -149.03276499989866, 61.504460499953382 ] } },
{ "type": "Feature", "properties": { "riverName": null, "community": null, "stationID": "15281500", "stationID_NWS": null }, "geometry": { "type": "Point", "coordinates": [ -147.410803300248062, 61.838373659906665 ] } },
{ "type": "Feature", "properties": { "riverName": null, "community": null, "stationID": "15283700", "stationID_NWS": null }, "geometry": { "type": "Point", "coordinates": [ -149.05241670037563, 61.717722199774357 ] } },
{ "type": "Feature", "properties": { "riverName": null, "community": null, "stationID": "15284000", "stationID_NWS": null }, "geometry": { "type": "Point", "coordinates": [ -149.073043200970204, 61.608631199622529 ] } },
{ "type": "Feature", "properties": { "riverName": null, "community": null, "stationID": "15285000", "stationID_NWS": null }, "geometry": { "type": "Point", "coordinates": [ -149.198330499643362, 61.643072779557478 ] } },
{ "type": "Feature", "properties": { "riverName": null, "community": null, "stationID": "15286000", "stationID_NWS": null }, "geometry": { "type": "Point", "coordinates": [ -149.411942800663297, 61.574461700192948 ] } },
{ "type": "Feature", "properties": { "riverName": null, "community": null, "stationID": "15290000", "stationID_NWS": null }, "geometry": { "type": "Point", "coordinates": [ -149.231937999650228, 61.709743299826961 ] } },
{ "type": "Feature", "properties": { "riverName": null, "community": null, "stationID": "15291000", "stationID_NWS": null }, "geometry": { "type": "Point", "coordinates": [ -147.518090199093052, 63.103438369678379 ] } },
{ "type": "Feature", "properties": { "riverName": null, "community": null, "stationID": "15291200", "stationID_NWS": null }, "geometry": { "type": "Point", "coordinates": [ -146.531420800130945, 63.119009500266458 ] } },
{ "type": "Feature", "properties": { "riverName": null, "community": null, "stationID": "15291500", "stationID_NWS": null }, "geometry": { "type": "Point", "coordinates": [ -147.547216800225954, 62.698153199568793 ] } },
{ "type": "Feature", "properties": { "riverName": null, "community": null, "stationID": "15291700", "stationID_NWS": null }, "geometry": { "type": "Point", "coordinates": [ -148.604722200858617, 62.823333300416323 ] } },
{ "type": "Feature", "properties": { "riverName": null, "community": null, "stationID": "15292000", "stationID_NWS": null }, "geometry": { "type": "Point", "coordinates": [ -149.693379400119113, 62.767289900348423 ] } },
{ "type": "Feature", "properties": { "riverName": null, "community": null, "stationID": "15292400", "stationID_NWS": null }, "geometry": { "type": "Point", "coordinates": [ -150.236159999583776, 62.558108369564643 ] } },
{ "type": "Feature", "properties": { "riverName": null, "community": null, "stationID": "15292700", "stationID_NWS": null }, "geometry": { "type": "Point", "coordinates": [ -150.019201000041335, 62.346438799579616 ] } },
{ "type": "Feature", "properties": { "riverName": null, "community": null, "stationID": "15292780", "stationID_NWS": null }, "geometry": { "type": "Point", "coordinates": [ -150.172671900197059, 62.17484740021883 ] } },
{ "type": "Feature", "properties": { "riverName": null, "community": null, "stationID": "15292800", "stationID_NWS": null }, "geometry": { "type": "Point", "coordinates": [ -150.059748600902651, 62.104761900222393 ] } },
{ "type": "Feature", "properties": { "riverName": null, "community": null, "stationID": "15293200", "stationID_NWS": null }, "geometry": { "type": "Point", "coordinates": [ -150.071388899763065, 61.923888890411099 ] } },
{ "type": "Feature", "properties": { "riverName": null, "community": null, "stationID": "15293700", "stationID_NWS": null }, "geometry": { "type": "Point", "coordinates": [ -150.097237899215344, 61.809745859554909 ] } },
{ "type": "Feature", "properties": { "riverName": null, "community": null, "stationID": "15294005", "stationID_NWS": null }, "geometry": { "type": "Point", "coordinates": [ -149.886678599281424, 61.780303460142541 ] } },
{ "type": "Feature", "properties": { "riverName": null, "community": null, "stationID": "15294010", "stationID_NWS": null }, "geometry": { "type": "Point", "coordinates": [ -149.939456300199765, 61.747244699987256 ] } },
{ "type": "Feature", "properties": { "riverName": null, "community": null, "stationID": "15294100", "stationID_NWS": null }, "geometry": { "type": "Point", "coordinates": [ -150.339183199961951, 61.76752119994962 ] } },
{ "type": "Feature", "properties": { "riverName": null, "community": null, "stationID": "15294300", "stationID_NWS": null }, "geometry": { "type": "Point", "coordinates": [ -151.369135800601356, 61.872509180286492 ] } },
{ "type": "Feature", "properties": { "riverName": null, "community": null, "stationID": "15294345", "stationID_NWS": null }, "geometry": { "type": "Point", "coordinates": [ -150.652788499701529, 61.698074699669178 ] } },
{ "type": "Feature", "properties": { "riverName": null, "community": null, "stationID": "15294350", "stationID_NWS": null }, "geometry": { "type": "Point", "coordinates": [ -150.514732899203324, 61.544179599939454 ] } },
{ "type": "Feature", "properties": { "riverName": null, "community": null, "stationID": "15294410", "stationID_NWS": null }, "geometry": { "type": "Point", "coordinates": [ -151.667748000319392, 61.328604499875276 ] } },
{ "type": "Feature", "properties": { "riverName": null, "community": null, "stationID": "15294450", "stationID_NWS": null }, "geometry": { "type": "Point", "coordinates": [ -151.254181499234306, 61.108051099772567 ] } },
{ "type": "Feature", "properties": { "riverName": null, "community": null, "stationID": "15294500", "stationID_NWS": null }, "geometry": { "type": "Point", "coordinates": [ -152.359368799861585, 61.211627100042747 ] } },
{ "type": "Feature", "properties": { "riverName": null, "community": null, "stationID": "15294585", "stationID_NWS": null }, "geometry": { "type": "Point", "coordinates": [ -152.128642900401275, 60.65553610006797 ] } },
{ "type": "Feature", "properties": { "riverName": null, "community": null, "stationID": "15294640", "stationID_NWS": null }, "geometry": { "type": "Point", "coordinates": [ -152.818611000758381, 60.358055599626617 ] } },
{ "type": "Feature", "properties": { "riverName": null, "community": null, "stationID": "15294700", "stationID_NWS": null }, "geometry": { "type": "Point", "coordinates": [ -152.912777000759974, 60.094112989639385 ] } },
{ "type": "Feature", "properties": { "riverName": null, "community": null, "stationID": "15294900", "stationID_NWS": null }, "geometry": { "type": "Point", "coordinates": [ -154.26128320037725, 59.154591599973251 ] } },
{ "type": "Feature", "properties": { "riverName": null, "community": null, "stationID": "15295600", "stationID_NWS": null }, "geometry": { "type": "Point", "coordinates": [ -153.031676199306332, 57.650635200025064 ] } },
{ "type": "Feature", "properties": { "riverName": null, "community": null, "stationID": "15295700", "stationID_NWS": null }, "geometry": { "type": "Point", "coordinates": [ -153.163908700816734, 57.693978070336904 ] } },
{ "type": "Feature", "properties": { "riverName": null, "community": null, "stationID": "15296480", "stationID_NWS": null }, "geometry": { "type": "Point", "coordinates": [ -153.987862600593843, 57.515105799952977 ] } },
{ "type": "Feature", "properties": { "riverName": null, "community": null, "stationID": "15296550", "stationID_NWS": null }, "geometry": { "type": "Point", "coordinates": [ -153.970093900257694, 57.35009039992471 ] } },
{ "type": "Feature", "properties": { "riverName": null, "community": null, "stationID": "15296600", "stationID_NWS": null }, "geometry": { "type": "Point", "coordinates": [ -154.113699199449542, 57.442877599785177 ] } },
{ "type": "Feature", "properties": { "riverName": null, "community": null, "stationID": "15297100", "stationID_NWS": null }, "geometry": { "type": "Point", "coordinates": [ -153.014730199346957, 57.594239200229595 ] } },
{ "type": "Feature", "properties": { "riverName": null, "community": null, "stationID": "15297110", "stationID_NWS": null }, "geometry": { "type": "Point", "coordinates": [ -152.961392700338337, 57.562567199795311 ] } },
{ "type": "Feature", "properties": { "riverName": null, "community": null, "stationID": "15297200", "stationID_NWS": null }, "geometry": { "type": "Point", "coordinates": [ -152.405522999412, 57.602564499635932 ] } },
{ "type": "Feature", "properties": { "riverName": null, "community": null, "stationID": "15297482", "stationID_NWS": null }, "geometry": { "type": "Point", "coordinates": [ -152.935557999532534, 57.668133760141764 ] } },
{ "type": "Feature", "properties": { "riverName": null, "community": null, "stationID": "15297485", "stationID_NWS": null }, "geometry": { "type": "Point", "coordinates": [ -152.870554000596684, 57.709802799863951 ] } },
{ "type": "Feature", "properties": { "riverName": null, "community": null, "stationID": "15297580", "stationID_NWS": null }, "geometry": { "type": "Point", "coordinates": [ -158.91823979996002, 56.453212699584974 ] } },
{ "type": "Feature", "properties": { "riverName": null, "community": null, "stationID": "15297585", "stationID_NWS": null }, "geometry": { "type": "Point", "coordinates": [ -158.937012000273853, 56.393906400008007 ] } },
{ "type": "Feature", "properties": { "riverName": null, "community": null, "stationID": "15297602", "stationID_NWS": null }, "geometry": { "type": "Point", "coordinates": [ -160.512012999755711, 55.315010199940552 ] } },
{ "type": "Feature", "properties": { "riverName": null, "community": null, "stationID": "15297603", "stationID_NWS": null }, "geometry": { "type": "Point", "coordinates": [ -160.486178899243981, 55.341677699978604 ] } },
{ "type": "Feature", "properties": { "riverName": null, "community": null, "stationID": "15297610", "stationID_NWS": null }, "geometry": { "type": "Point", "coordinates": [ -162.689510900523999, 55.176905900387318 ] } },
{ "type": "Feature", "properties": { "riverName": null, "community": null, "stationID": "15297617", "stationID_NWS": null }, "geometry": { "type": "Point", "coordinates": [ -176.663308999915103, 51.87584326012751 ] } },
{ "type": "Feature", "properties": { "riverName": null, "community": null, "stationID": "15297625", "stationID_NWS": null }, "geometry": { "type": "Point", "coordinates": [ -176.651927699406315, 51.936397689837065 ] } },
{ "type": "Feature", "properties": { "riverName": null, "community": null, "stationID": "15297900", "stationID_NWS": null }, "geometry": { "type": "Point", "coordinates": [ -156.67102419915733, 58.684829299675286 ] } },
{ "type": "Feature", "properties": { "riverName": null, "community": null, "stationID": "15298040", "stationID_NWS": null }, "geometry": { "type": "Point", "coordinates": [ -154.704434900129598, 60.203659099682923 ] } },
{ "type": "Feature", "properties": { "riverName": null, "community": null, "stationID": "15299900", "stationID_NWS": null }, "geometry": { "type": "Point", "coordinates": [ -154.661630599307699, 59.917379300169877 ] } },
{ "type": "Feature", "properties": { "riverName": null, "community": null, "stationID": "15300000", "stationID_NWS": null }, "geometry": { "type": "Point", "coordinates": [ -154.875518699808651, 59.858762569674347 ] } },
{ "type": "Feature", "properties": { "riverName": null, "community": null, "stationID": "15300100", "stationID_NWS": null }, "geometry": { "type": "Point", "coordinates": [ -154.884404899990045, 59.823761700146655 ] } },
{ "type": "Feature", "properties": { "riverName": null, "community": null, "stationID": "15300200", "stationID_NWS": null }, "geometry": { "type": "Point", "coordinates": [ -154.849121200405278, 59.756538979792168 ] } },
{ "type": "Feature", "properties": { "riverName": null, "community": null, "stationID": "15300250", "stationID_NWS": null }, "geometry": { "type": "Point", "coordinates": [ -155.255240600609824, 59.785976099920077 ] } },
{ "type": "Feature", "properties": { "riverName": null, "community": null, "stationID": "15300300", "stationID_NWS": null }, "geometry": { "type": "Point", "coordinates": [ -153.846886600763384, 59.757949900271718 ] } },
{ "type": "Feature", "properties": { "riverName": null, "community": null, "stationID": "15300500", "stationID_NWS": null }, "geometry": { "type": "Point", "coordinates": [ -155.901329500630709, 59.328179869560891 ] } },
{ "type": "Feature", "properties": { "riverName": null, "community": null, "stationID": "15300520", "stationID_NWS": null }, "geometry": { "type": "Point", "coordinates": [ -156.077442999286177, 59.337621999631168 ] } },
{ "type": "Feature", "properties": { "riverName": null, "community": null, "stationID": "15301500", "stationID_NWS": null }, "geometry": { "type": "Point", "coordinates": [ -158.736692300240719, 60.15399440013416 ] } },
{ "type": "Feature", "properties": { "riverName": null, "community": null, "stationID": "15302000", "stationID_NWS": null }, "geometry": { "type": "Point", "coordinates": [ -158.19000620062107, 59.934829999774351 ] } },
{ "type": "Feature", "properties": { "riverName": null, "community": null, "stationID": "15302200", "stationID_NWS": null }, "geometry": { "type": "Point", "coordinates": [ -155.52468949942994, 59.792637599618018 ] } },
{ "type": "Feature", "properties": { "riverName": null, "community": null, "stationID": "15302250", "stationID_NWS": null }, "geometry": { "type": "Point", "coordinates": [ -155.718556400151527, 59.842468200119448 ] } },
{ "type": "Feature", "properties": { "riverName": null, "community": null, "stationID": "15302300", "stationID_NWS": null }, "geometry": { "type": "Point", "coordinates": [ -156.693869300335876, 59.837622699966659 ] } },
{ "type": "Feature", "properties": { "riverName": null, "community": null, "stationID": "15302320", "stationID_NWS": null }, "geometry": { "type": "Point", "coordinates": [ -156.666922899214057, 59.809011489860701 ] } },
{ "type": "Feature", "properties": { "riverName": null, "community": null, "stationID": "15302500", "stationID_NWS": null }, "geometry": { "type": "Point", "coordinates": [ -157.47524260055107, 59.348439099811337 ] } },
{ "type": "Feature", "properties": { "riverName": null, "community": null, "stationID": "15302840", "stationID_NWS": null }, "geometry": { "type": "Point", "coordinates": [ -159.116107899812334, 59.603421599754917 ] } },
{ "type": "Feature", "properties": { "riverName": null, "community": null, "stationID": "15303010", "stationID_NWS": null }, "geometry": { "type": "Point", "coordinates": [ -158.674699000376762, 59.225365700174102 ] } },
{ "type": "Feature", "properties": { "riverName": null, "community": null, "stationID": "15303011", "stationID_NWS": null }, "geometry": { "type": "Point", "coordinates": [ -158.669420500464241, 59.206476670422838 ] } },
{ "type": "Feature", "properties": { "riverName": null, "community": null, "stationID": "15303150", "stationID_NWS": null }, "geometry": { "type": "Point", "coordinates": [ -158.889421999596891, 59.147583300459594 ] } },
{ "type": "Feature", "properties": { "riverName": null, "community": null, "stationID": "15303700", "stationID_NWS": null }, "geometry": { "type": "Point", "coordinates": [ -155.941802999775234, 62.884369700190391 ] } },
{ "type": "Feature", "properties": { "riverName": null, "community": null, "stationID": "15303900", "stationID_NWS": null }, "geometry": { "type": "Point", "coordinates": [ -156.21290690081193, 62.051277299633803 ] } },
{ "type": "Feature", "properties": { "riverName": null, "community": null, "stationID": "15304000", "stationID_NWS": null }, "geometry": { "type": "Point", "coordinates": [ -158.113784799069322, 61.868744499872477 ] } },
{ "type": "Feature", "properties": { "riverName": null, "community": null, "stationID": "15304010", "stationID_NWS": null }, "geometry": { "type": "Point", "coordinates": [ -158.156842000438843, 61.889300599634907 ] } },
{ "type": "Feature", "properties": { "riverName": null, "community": null, "stationID": "15304200", "stationID_NWS": null }, "geometry": { "type": "Point", "coordinates": [ -159.918925600644229, 60.35203690032489 ] } },
{ "type": "Feature", "properties": { "riverName": null, "community": null, "stationID": "15304293", "stationID_NWS": null }, "geometry": { "type": "Point", "coordinates": [ -161.825075500574258, 60.80480307036175 ] } },
{ "type": "Feature", "properties": { "riverName": null, "community": null, "stationID": "15304298", "stationID_NWS": null }, "geometry": { "type": "Point", "coordinates": [ -161.775908200560565, 60.798136569738539 ] } },
{ "type": "Feature", "properties": { "riverName": null, "community": null, "stationID": "15304400", "stationID_NWS": null }, "geometry": { "type": "Point", "coordinates": [ -164.598392999454916, 60.805797300115479 ] } },
{ "type": "Feature", "properties": { "riverName": null, "community": null, "stationID": "15310002", "stationID_NWS": null }, "geometry": { "type": "Point", "coordinates": [ -142.528333300408235, 64.034444399878851 ] } },
{ "type": "Feature", "properties": { "riverName": null, "community": null, "stationID": "15320100", "stationID_NWS": null }, "geometry": { "type": "Point", "coordinates": [ -141.55589470013274, 64.118011900429579 ] } },
{ "type": "Feature", "properties": { "riverName": null, "community": null, "stationID": "15348000", "stationID_NWS": null }, "geometry": { "type": "Point", "coordinates": [ -141.404516800637481, 64.308855200340318 ] } },
{ "type": "Feature", "properties": { "riverName": null, "community": null, "stationID": "15356000", "stationID_NWS": null }, "geometry": { "type": "Point", "coordinates": [ -141.20008920001203, 64.789167999560235 ] } },
{ "type": "Feature", "properties": { "riverName": null, "community": null, "stationID": "15388030", "stationID_NWS": null }, "geometry": { "type": "Point", "coordinates": [ -141.655151799260949, 65.23943138950726 ] } },
{ "type": "Feature", "properties": { "riverName": null, "community": null, "stationID": "15388060", "stationID_NWS": null }, "geometry": { "type": "Point", "coordinates": [ -142.430455000491548, 65.395243500132437 ] } },
{ "type": "Feature", "properties": { "riverName": null, "community": null, "stationID": "15388070", "stationID_NWS": null }, "geometry": { "type": "Point", "coordinates": [ -142.447120600926098, 65.385242899638882 ] } },
{ "type": "Feature", "properties": { "riverName": null, "community": null, "stationID": "15389100", "stationID_NWS": null }, "geometry": { "type": "Point", "coordinates": [ -145.09914769993091, 66.651467800177159 ] } },
{ "type": "Feature", "properties": { "riverName": null, "community": null, "stationID": "15392000", "stationID_NWS": null }, "geometry": { "type": "Point", "coordinates": [ -145.714955899432113, 65.392115699951091 ] } },
{ "type": "Feature", "properties": { "riverName": null, "community": null, "stationID": "15439800", "stationID_NWS": null }, "geometry": { "type": "Point", "coordinates": [ -144.889402500979202, 65.567693499855039 ] } },
{ "type": "Feature", "properties": { "riverName": null, "community": null, "stationID": "15452100", "stationID_NWS": null }, "geometry": { "type": "Point", "coordinates": [ -146.651133899924531, 65.805162999606665 ] } },
{ "type": "Feature", "properties": { "riverName": null, "community": null, "stationID": "15452300", "stationID_NWS": null }, "geometry": { "type": "Point", "coordinates": [ -146.764746300463401, 66.221281700338935 ] } },
{ "type": "Feature", "properties": { "riverName": null, "community": null, "stationID": "15453500", "stationID_NWS": null }, "geometry": { "type": "Point", "coordinates": [ -149.720348699214838, 65.875101300055448 ] } },
{ "type": "Feature", "properties": { "riverName": null, "community": null, "stationID": "15457790", "stationID_NWS": null }, "geometry": { "type": "Point", "coordinates": [ -148.387855600613761, 65.574000000410507 ] } },
{ "type": "Feature", "properties": { "riverName": null, "community": null, "stationID": "15457800", "stationID_NWS": null }, "geometry": { "type": "Point", "coordinates": [ -149.098925399269206, 65.664834280082289 ] } },
{ "type": "Feature", "properties": { "riverName": null, "community": null, "stationID": "15476000", "stationID_NWS": null }, "geometry": { "type": "Point", "coordinates": [ -143.748633999338068, 63.387971600044104 ] } },
{ "type": "Feature", "properties": { "riverName": null, "community": null, "stationID": "15476300", "stationID_NWS": null }, "geometry": { "type": "Point", "coordinates": [ -144.365332500778948, 63.689351000163974 ] } },
{ "type": "Feature", "properties": { "riverName": null, "community": null, "stationID": "15477730", "stationID_NWS": null }, "geometry": { "type": "Point", "coordinates": [ -144.88540239902872, 64.447674800267606 ] } },
{ "type": "Feature", "properties": { "riverName": null, "community": null, "stationID": "15477740", "stationID_NWS": null }, "geometry": { "type": "Point", "coordinates": [ -144.944571700546106, 64.450174400362897 ] } },
{ "type": "Feature", "properties": { "riverName": null, "community": null, "stationID": "15477761", "stationID_NWS": null }, "geometry": { "type": "Point", "coordinates": [ -144.850955499526322, 64.416565000033927 ] } },
{ "type": "Feature", "properties": { "riverName": null, "community": null, "stationID": "15477768", "stationID_NWS": null }, "geometry": { "type": "Point", "coordinates": [ -144.780118901013424, 64.389066800054266 ] } },
{ "type": "Feature", "properties": { "riverName": null, "community": null, "stationID": "15477770", "stationID_NWS": null }, "geometry": { "type": "Point", "coordinates": [ -144.813730499188352, 64.377399890211649 ] } },
{ "type": "Feature", "properties": { "riverName": null, "community": null, "stationID": "15477790", "stationID_NWS": null }, "geometry": { "type": "Point", "coordinates": [ -144.945401699684282, 64.376565200243007 ] } },
{ "type": "Feature", "properties": { "riverName": null, "community": null, "stationID": "15478040", "stationID_NWS": null }, "geometry": { "type": "Point", "coordinates": [ -145.468055600190354, 63.24027777992189 ] } },
{ "type": "Feature", "properties": { "riverName": null, "community": null, "stationID": "15484000", "stationID_NWS": null }, "geometry": { "type": "Point", "coordinates": [ -146.928055599218453, 64.471527779907674 ] } },
{ "type": "Feature", "properties": { "riverName": null, "community": null, "stationID": "15493000", "stationID_NWS": null }, "geometry": { "type": "Point", "coordinates": [ -146.36133330026675, 64.90197220032384 ] } },
{ "type": "Feature", "properties": { "riverName": null, "community": null, "stationID": "15493400", "stationID_NWS": null }, "geometry": { "type": "Point", "coordinates": [ -146.805750500519054, 64.859587900082246 ] } },
{ "type": "Feature", "properties": { "riverName": null, "community": null, "stationID": "15493700", "stationID_NWS": null }, "geometry": { "type": "Point", "coordinates": [ -147.230192899123381, 64.80041190027579 ] } },
{ "type": "Feature", "properties": { "riverName": null, "community": null, "stationID": "15511000", "stationID_NWS": null }, "geometry": { "type": "Point", "coordinates": [ -147.249647699589531, 64.885689879868735 ] } },
{ "type": "Feature", "properties": { "riverName": null, "community": null, "stationID": "15515048", "stationID_NWS": null }, "geometry": { "type": "Point", "coordinates": [ -148.761111000541376, 63.973888889907641 ] } },
{ "type": "Feature", "properties": { "riverName": null, "community": null, "stationID": "15515060", "stationID_NWS": null }, "geometry": { "type": "Point", "coordinates": [ -148.728167300544243, 64.008433700173384 ] } },
{ "type": "Feature", "properties": { "riverName": null, "community": null, "stationID": "15515080", "stationID_NWS": null }, "geometry": { "type": "Point", "coordinates": [ -148.727611999398675, 64.011211490213313 ] } },
{ "type": "Feature", "properties": { "riverName": null, "community": null, "stationID": "15518020", "stationID_NWS": null }, "geometry": { "type": "Point", "coordinates": [ -148.842872200008486, 63.852321599760643 ] } },
{ "type": "Feature", "properties": { "riverName": null, "community": null, "stationID": "15518040", "stationID_NWS": null }, "geometry": { "type": "Point", "coordinates": [ -148.957871899230668, 63.853708369595189 ] } },
{ "type": "Feature", "properties": { "riverName": null, "community": null, "stationID": "15518080", "stationID_NWS": null }, "geometry": { "type": "Point", "coordinates": [ -148.985932500295377, 63.904262990154891 ] } },
{ "type": "Feature", "properties": { "riverName": null, "community": null, "stationID": "15518900", "stationID_NWS": null }, "geometry": { "type": "Point", "coordinates": [ -148.26888940077626, 65.471514289863705 ] } },
{ "type": "Feature", "properties": { "riverName": null, "community": null, "stationID": "15519100", "stationID_NWS": null }, "geometry": { "type": "Point", "coordinates": [ -148.631114300560768, 65.46484070002812 ] } },
{ "type": "Feature", "properties": { "riverName": null, "community": null, "stationID": "15519150", "stationID_NWS": null }, "geometry": { "type": "Point", "coordinates": [ -148.669170200787477, 65.466228799922874 ] } },
{ "type": "Feature", "properties": { "riverName": null, "community": null, "stationID": "15534800", "stationID_NWS": null }, "geometry": { "type": "Point", "coordinates": [ -147.458011800657033, 65.140966800375594 ] } },
{ "type": "Feature", "properties": { "riverName": null, "community": null, "stationID": "15535000", "stationID_NWS": null }, "geometry": { "type": "Point", "coordinates": [ -147.553847000978351, 65.149575600318983 ] } },
{ "type": "Feature", "properties": { "riverName": null, "community": null, "stationID": "15564450", "stationID_NWS": null }, "geometry": { "type": "Point", "coordinates": [ -155.503532699485675, 64.399950599969429 ] } },
{ "type": "Feature", "properties": { "riverName": null, "community": null, "stationID": "15564875", "stationID_NWS": null }, "geometry": { "type": "Point", "coordinates": [ -150.077744599676208, 67.437908700410375 ] } },
{ "type": "Feature", "properties": { "riverName": null, "community": null, "stationID": "15564879", "stationID_NWS": null }, "geometry": { "type": "Point", "coordinates": [ -150.177222200800685, 67.25444439964491 ] } },
{ "type": "Feature", "properties": { "riverName": null, "community": null, "stationID": "15564900", "stationID_NWS": null }, "geometry": { "type": "Point", "coordinates": [ -154.260968299929289, 66.046955370342502 ] } },
{ "type": "Feature", "properties": { "riverName": null, "community": null, "stationID": "15565400", "stationID_NWS": null }, "geometry": { "type": "Point", "coordinates": [ -160.699352000753578, 62.788721099662865 ] } },
{ "type": "Feature", "properties": { "riverName": null, "community": null, "stationID": "15565700", "stationID_NWS": null }, "geometry": { "type": "Point", "coordinates": [ -160.307472499411887, 63.934296500148314 ] } },
{ "type": "Feature", "properties": { "riverName": null, "community": null, "stationID": "15583500", "stationID_NWS": null }, "geometry": { "type": "Point", "coordinates": [ -164.168443199499649, 64.698148499956417 ] } },
{ "type": "Feature", "properties": { "riverName": null, "community": null, "stationID": "15621000", "stationID_NWS": null }, "geometry": { "type": "Point", "coordinates": [ -165.509808200010411, 64.563396700084454 ] } },
{ "type": "Feature", "properties": { "riverName": null, "community": null, "stationID": "15625850", "stationID_NWS": null }, "geometry": { "type": "Point", "coordinates": [ -165.429527800860257, 64.807777779934952 ] } },
{ "type": "Feature", "properties": { "riverName": null, "community": null, "stationID": "15625900", "stationID_NWS": null },