{
"type": "FeatureCollection",
"crs": { "type": "name", "properties": { "name": "urn:ogc:def:crs:OGC:1.3:CRS84" } },
"features": [
{ "type": "Feature", "properties": { "NWSID": " AAKA2 ", "startDate": "2008-02-22 00:00:00", "endDate": "2012-08-14 00:00:00", "lat": 58.851944444444001, "lon": -134.70861111111, "name": " Antler River Nr Auke Bay 32 NW", "Notes": " USGS GOES\/HADS river stage" }, "geometry": { "type": "Point", "coordinates": [ -134.708611111110002, 58.851944444444001 ] } },
{ "type": "Feature", "properties": { "NWSID": " AAKA2 ", "startDate": "2012-08-14 00:00:00", "endDate": "            ", "lat": 58.851944444444001, "lon": -134.70861111111, "name": " Antler River Nr Auke Bay 32 NW", "Notes": " USGS GOES\/HADS river stage" }, "geometry": { "type": "Point", "coordinates": [ -134.708611111110002, 58.851944444444001 ] } },
{ "type": "Feature", "properties": { "NWSID": " AKLA2 ", "startDate": "2006-05-31 00:00:00", "endDate": "2008-02-22 00:00:00", "lat": 58.385, "lon": -134.6369, "name": " Auke Bay", "Notes": " IGAGE" }, "geometry": { "type": "Point", "coordinates": [ -134.6369, 58.385 ] } },
{ "type": "Feature", "properties": { "NWSID": " AKLA2 ", "startDate": "2008-02-22 00:00:00", "endDate": "2015-06-30 00:00:00", "lat": 58.385, "lon": -134.63694444443999, "name": " Auke Lake Near Auke Bay", "Notes": " IGAGE" }, "geometry": { "type": "Point", "coordinates": [ -134.63694444443999, 58.385 ] } },
{ "type": "Feature", "properties": { "NWSID": " AKLA2 ", "startDate": "2015-06-30 00:00:00", "endDate": "            ", "lat": 58.383055555555998, "lon": -134.63472222222001, "name": " Auke Lake Near Auke Bay", "Notes": " IGAGE" }, "geometry": { "type": "Point", "coordinates": [ -134.634722222220006, 58.383055555555998 ] } },
{ "type": "Feature", "properties": { "NWSID": " ALAQ9 ", "startDate": "2002-01-25 00:00:00", "endDate": "2008-02-22 00:00:00", "lat": 61.5903, "lon": -137.4111, "name": " Aishihik Lake Nr Aishihik Village 50 SW", "Notes": " " }, "geometry": { "type": "Point", "coordinates": [ -137.4111, 61.5903 ] } },
{ "type": "Feature", "properties": { "NWSID": " ALAQ9 ", "startDate": "2008-02-22 00:00:00", "endDate": "            ", "lat": 61.590277777777999, "lon": -137.41111111110999, "name": " Aishihik Lake Nr Aishihik Village 50 SW", "Notes": " " }, "geometry": { "type": "Point", "coordinates": [ -137.411111111109989, 61.590277777777999 ] } },
{ "type": "Feature", "properties": { "NWSID": " ALEA2 ", "startDate": "2011-07-15 00:00:00", "endDate": "2011-08-22 00:00:00", "lat": 59.190555555556003, "lon": -138.42277777778, "name": " Alsek River At Dry Bay", "Notes": " USGS GOES\/HADS river stage" }, "geometry": { "type": "Point", "coordinates": [ -138.422777777779999, 59.190555555556003 ] } },
{ "type": "Feature", "properties": { "NWSID": " ALEA2 ", "startDate": "2011-08-22 00:00:00", "endDate": "2012-08-14 00:00:00", "lat": 59.190555555556003, "lon": -138.32666666667001, "name": " Alsek River At Dry Bay", "Notes": " USGS GOES\/HADS river stage" }, "geometry": { "type": "Point", "coordinates": [ -138.326666666670008, 59.190555555556003 ] } },
{ "type": "Feature", "properties": { "NWSID": " ALEA2 ", "startDate": "2012-08-14 00:00:00", "endDate": "            ", "lat": 59.190555555556003, "lon": -138.32666666667001, "name": " Alsek River At Dry Bay", "Notes": " USGS GOES\/HADS river stage" }, "geometry": { "type": "Point", "coordinates": [ -138.326666666670008, 59.190555555556003 ] } },
{ "type": "Feature", "properties": { "NWSID": " ALLA2 ", "startDate": "1989-06-01 00:00:00", "endDate": "1996-10-01 00:00:00", "lat": 66.34, "lon": -152.4, "name": " Allakaket", "Notes": null }, "geometry": { "type": "Point", "coordinates": [ -152.4, 66.34 ] } },
{ "type": "Feature", "properties": { "NWSID": " ALLA2 ", "startDate": "1996-10-01 00:00:00", "endDate": "1997-09-22 00:00:00", "lat": 66.34, "lon": -152.39, "name": " Allakaket", "Notes": null }, "geometry": { "type": "Point", "coordinates": [ -152.39, 66.34 ] } },
{ "type": "Feature", "properties": { "NWSID": " ALLA2 ", "startDate": "1997-09-22 00:00:00", "endDate": "1998-08-15 00:00:00", "lat": 66.34, "lon": -152.39, "name": " Allakaket", "Notes": null }, "geometry": { "type": "Point", "coordinates": [ -152.39, 66.34 ] } },
{ "type": "Feature", "properties": { "NWSID": " ALLA2 ", "startDate": "1969-07-01 00:00:00", "endDate": "2008-02-22 00:00:00", "lat": 66.5653, "lon": -152.6425, "name": " Allakaket 98 N", "Notes": null }, "geometry": { "type": "Point", "coordinates": [ -152.6425, 66.5653 ] } },
{ "type": "Feature", "properties": { "NWSID": " ALLA2 ", "startDate": "2008-02-22 00:00:00", "endDate": "            ", "lat": 66.565277777777993, "lon": -152.6425, "name": " Allakaket 98 N", "Notes": null }, "geometry": { "type": "Point", "coordinates": [ -152.6425, 66.565277777777993 ] } },
{ "type": "Feature", "properties": { "NWSID": " ALSQ9 ", "startDate": "2004-12-15 00:00:00", "endDate": "2008-02-22 00:00:00", "lat": 60.1192, "lon": -137.9742, "name": " Alsek River Above Bates River", "Notes": " " }, "geometry": { "type": "Point", "coordinates": [ -137.9742, 60.1192 ] } },
{ "type": "Feature", "properties": { "NWSID": " ALSQ9 ", "startDate": "2008-02-22 00:00:00", "endDate": "2010-07-06 00:00:00", "lat": 60.1191666666667, "lon": -137.974166666667, "name": " Alsek River Above Bates River", "Notes": " " }, "geometry": { "type": "Point", "coordinates": [ -137.974166666667003, 60.1191666666667 ] } },
{ "type": "Feature", "properties": { "NWSID": " ALSQ9 ", "startDate": "2010-07-06 00:00:00", "endDate": "            ", "lat": 60.119166666666999, "lon": -137.97416666666999, "name": " Alsek River Above Bates River", "Notes": " " }, "geometry": { "type": "Point", "coordinates": [ -137.974166666669987, 60.119166666666999 ] } },
{ "type": "Feature", "properties": { "NWSID": " ALWQ9 ", "startDate": "2002-01-25 00:00:00", "endDate": "2008-02-22 00:00:00", "lat": 61.1981, "lon": -136.9981, "name": " Aishihik Lake Nr Whitehorse 35 NNE", "Notes": " " }, "geometry": { "type": "Point", "coordinates": [ -136.9981, 61.1981 ] } },
{ "type": "Feature", "properties": { "NWSID": " ALWQ9 ", "startDate": "2008-02-22 00:00:00", "endDate": "            ", "lat": 61.198055555555598, "lon": -136.99805555555599, "name": " Aishihik Lake Nr Whitehorse 35 NNE", "Notes": " " }, "geometry": { "type": "Point", "coordinates": [ -136.998055555555993, 61.198055555555598 ] } },
{ "type": "Feature", "properties": { "NWSID": " APBA2 ", "startDate": "1953-06-23 00:00:00", "endDate": "2008-02-22 00:00:00", "lat": 59.7722, "lon": -151.8364, "name": " Anchor Point 1 SSW", "Notes": " NWS wire weight river stage" }, "geometry": { "type": "Point", "coordinates": [ -151.8364, 59.7722 ] } },
{ "type": "Feature", "properties": { "NWSID": " APBA2 ", "startDate": "2008-02-22 00:00:00", "endDate": "            ", "lat": 59.772222222221998, "lon": -151.83638888889001, "name": " Anchor River At Anchor Point 1 SSW", "Notes": " NWS wire weight river stage" }, "geometry": { "type": "Point", "coordinates": [ -151.836388888890014, 59.772222222221998 ] } },
{ "type": "Feature", "properties": { "NWSID": " APTA2 ", "startDate": "1965-06-20 00:00:00", "endDate": "2008-02-22 00:00:00", "lat": 59.7472, "lon": -151.7531, "name": " New Sterling Hwy 4 SE", "Notes": " NWS PRECIP\/LARC & USGS GAGE" }, "geometry": { "type": "Point", "coordinates": [ -151.7531, 59.7472 ] } },
{ "type": "Feature", "properties": { "NWSID": " APTA2 ", "startDate": "2008-02-22 00:00:00", "endDate": "            ", "lat": 59.747222222222199, "lon": -151.75305555555599, "name": " Anchor River At New Sterling Hwy 4 SE", "Notes": " NWS PRECIP\/LARC & USGS GAGE" }, "geometry": { "type": "Point", "coordinates": [ -151.753055555555989, 59.747222222222199 ] } },
{ "type": "Feature", "properties": { "NWSID": " ARAQ9 ", "startDate": "2002-01-28 00:00:00", "endDate": "2008-02-22 00:00:00", "lat": 61.1844, "lon": -136.99, "name": " Aishihik River Blw Aishihik Lake 35 NNE", "Notes": " " }, "geometry": { "type": "Point", "coordinates": [ -136.99, 61.1844 ] } },
{ "type": "Feature", "properties": { "NWSID": " ARAQ9 ", "startDate": "2008-02-22 00:00:00", "endDate": "2011-11-23 00:00:00", "lat": 61.184444444443997, "lon": -136.99, "name": " Aishihik River Blw Aishihik Lake 35 NNE", "Notes": " " }, "geometry": { "type": "Point", "coordinates": [ -136.99, 61.184444444443997 ] } },
{ "type": "Feature", "properties": { "NWSID": " ARAQ9 ", "startDate": "2011-11-23 00:00:00", "endDate": "2012-06-20 00:00:00", "lat": 61.184444444443997, "lon": -136.99, "name": " Aishihik River Blw Aishihik Lake 35 NNE", "Notes": " " }, "geometry": { "type": "Point", "coordinates": [ -136.99, 61.184444444443997 ] } },
{ "type": "Feature", "properties": { "NWSID": " ARAQ9 ", "startDate": "2012-06-20 00:00:00", "endDate": "            ", "lat": 61.184444444443997, "lon": -136.99, "name": " Aishihik River Blw Aishihik Lake 35 NNE", "Notes": " " }, "geometry": { "type": "Point", "coordinates": [ -136.99, 61.184444444443997 ] } },
{ "type": "Feature", "properties": { "NWSID": " ARGA2 ", "startDate": "2010-09-23 00:00:00", "endDate": "2011-06-27 00:00:00", "lat": 68.452777777777996, "lon": -149.36833333333001, "name": " Atigun River Below Galbraith Lake", "Notes": " USGS GOES\/HADS river stage" }, "geometry": { "type": "Point", "coordinates": [ -149.368333333330014, 68.452777777777996 ] } },
{ "type": "Feature", "properties": { "NWSID": " ARGA2 ", "startDate": "2011-06-27 00:00:00", "endDate": "2012-06-20 00:00:00", "lat": 68.452777777777996, "lon": -149.36833333333001, "name": " Atigun River Below Galbraith Lake", "Notes": " USGS GOES\/HADS river stage" }, "geometry": { "type": "Point", "coordinates": [ -149.368333333330014, 68.452777777777996 ] } },
{ "type": "Feature", "properties": { "NWSID": " ARGA2 ", "startDate": "2012-06-20 00:00:00", "endDate": "            ", "lat": 68.452777777777996, "lon": -149.36833333333001, "name": " Atigun River Below Galbraith Lake", "Notes": " USGS GOES\/HADS river stage" }, "geometry": { "type": "Point", "coordinates": [ -149.368333333330014, 68.452777777777996 ] } },
{ "type": "Feature", "properties": { "NWSID": " BATA2 ", "startDate": "2010-08-09 00:00:00", "endDate": "2011-07-22 00:00:00", "lat": 59.755555555556001, "lon": -150.98388888888999, "name": " Battle Creek Near Homer", "Notes": " " }, "geometry": { "type": "Point", "coordinates": [ -150.983888888889993, 59.755555555556001 ] } },
{ "type": "Feature", "properties": { "NWSID": " BATA2 ", "startDate": "2011-07-22 00:00:00", "endDate": "2012-01-23 00:00:00", "lat": 59.755555555556001, "lon": -150.95333333332999, "name": " Battle Creek Near Homer", "Notes": " " }, "geometry": { "type": "Point", "coordinates": [ -150.953333333329994, 59.755555555556001 ] } },
{ "type": "Feature", "properties": { "NWSID": " BATA2 ", "startDate": "2012-01-23 00:00:00", "endDate": "2012-11-09 00:00:00", "lat": 59.762222222222, "lon": -150.95305555556001, "name": " Battle Creek Near Homer", "Notes": " " }, "geometry": { "type": "Point", "coordinates": [ -150.953055555560013, 59.762222222222 ] } },
{ "type": "Feature", "properties": { "NWSID": " BATA2 ", "startDate": "2012-11-09 00:00:00", "endDate": "2012-12-19 00:00:00", "lat": 59.762222222222, "lon": -150.98111111111001, "name": " Battle Creek Near Homer", "Notes": " " }, "geometry": { "type": "Point", "coordinates": [ -150.98111111111001, 59.762222222222 ] } },
{ "type": "Feature", "properties": { "NWSID": " BATA2 ", "startDate": "2012-12-19 00:00:00", "endDate": "            ", "lat": 59.762222222222, "lon": -150.95305555556001, "name": " Battle Creek Near Homer", "Notes": " " }, "geometry": { "type": "Point", "coordinates": [ -150.953055555560013, 59.762222222222 ] } },
{ "type": "Feature", "properties": { "NWSID": " BCTA2 ", "startDate": "2003-07-24 00:00:00", "endDate": "2008-02-22 00:00:00", "lat": 65.3925, "lon": -145.7125, "name": " Birch Creek Abv 12 MILE CK NR MILLER HOUSE         30 WSW", "Notes": " USGS GOES\/HADS" }, "geometry": { "type": "Point", "coordinates": [ -145.7125, 65.3925 ] } },
{ "type": "Feature", "properties": { "NWSID": " BCTA2 ", "startDate": "2008-02-22 00:00:00", "endDate": "2011-01-06 00:00:00", "lat": 65.3925, "lon": -145.7125, "name": " Birch Creek Nr Miller House 30 WSW", "Notes": " USGS GOES\/HADS" }, "geometry": { "type": "Point", "coordinates": [ -145.7125, 65.3925 ] } },
{ "type": "Feature", "properties": { "NWSID": " BCTA2 ", "startDate": "2011-01-06 00:00:00", "endDate": "2011-06-27 00:00:00", "lat": 65.3925, "lon": -145.82555555555999, "name": " Birch Creek Nr Miller House 30 WSW", "Notes": " USGS GOES\/HADS" }, "geometry": { "type": "Point", "coordinates": [ -145.825555555559987, 65.3925 ] } },
{ "type": "Feature", "properties": { "NWSID": " BCTA2 ", "startDate": "2011-06-27 00:00:00", "endDate": "            ", "lat": 65.3925, "lon": -145.7125, "name": " Birch Creek Nr Miller House 30 WSW", "Notes": " USGS GOES\/HADS" }, "geometry": { "type": "Point", "coordinates": [ -145.7125, 65.3925 ] } },
{ "type": "Feature", "properties": { "NWSID": " BELQ9 ", "startDate": "2001-06-28 00:00:00", "endDate": "2008-02-22 00:00:00", "lat": 60.1639, "lon": -134.7075, "name": " Bennett Lake Nr Carcross 1 SW", "Notes": " " }, "geometry": { "type": "Point", "coordinates": [ -134.7075, 60.1639 ] } },
{ "type": "Feature", "properties": { "NWSID": " BELQ9 ", "startDate": "2008-02-22 00:00:00", "endDate": "            ", "lat": 60.163888888888899, "lon": -134.7075, "name": " Bennett Lake Nr Carcross 1 SW", "Notes": " " }, "geometry": { "type": "Point", "coordinates": [ -134.7075, 60.163888888888899 ] } },
{ "type": "Feature", "properties": { "NWSID": " BETA2 ", "startDate": "1986-06-23 00:00:00", "endDate": "1999-12-31 00:00:00", "lat": 60.48, "lon": -161.45, "name": " Bethel Slough", "Notes": " NWS wire weight gage" }, "geometry": { "type": "Point", "coordinates": [ -161.45, 60.48 ] } },
{ "type": "Feature", "properties": { "NWSID": " BETA2 ", "startDate": "1971-09-13 00:00:00", "endDate": "2008-02-22 00:00:00", "lat": 60.8, "lon": -161.75, "name": " Brown's Slough 1 E", "Notes": " NWS wire weight gage" }, "geometry": { "type": "Point", "coordinates": [ -161.75, 60.8 ] } },
{ "type": "Feature", "properties": { "NWSID": " BETA2 ", "startDate": "2008-02-22 00:00:00", "endDate": "2012-01-23 00:00:00", "lat": 60.8, "lon": -161.75, "name": " Kuskokwim River At Bethel 1 E", "Notes": " NWS wire weight gage" }, "geometry": { "type": "Point", "coordinates": [ -161.75, 60.8 ] } },
{ "type": "Feature", "properties": { "NWSID": " BETA2 ", "startDate": "2012-01-23 00:00:00", "endDate": "            ", "lat": 60.793333333333003, "lon": -161.74555555556, "name": " Kuskokwim River At Bethel 1 E", "Notes": " NWS wire weight gage" }, "geometry": { "type": "Point", "coordinates": [ -161.745555555560003, 60.793333333333003 ] } },
{ "type": "Feature", "properties": { "NWSID": " BGCQ9 ", "startDate": "2001-06-28 00:00:00", "endDate": "2008-02-22 00:00:00", "lat": 60.1583, "lon": -129.7028, "name": " Big Creek @ Km 1084.8 31 W", "Notes": " " }, "geometry": { "type": "Point", "coordinates": [ -129.7028, 60.1583 ] } },
{ "type": "Feature", "properties": { "NWSID": " BGCQ9 ", "startDate": "2008-02-22 00:00:00", "endDate": "2011-11-23 00:00:00", "lat": 60.158333333333303, "lon": -129.70277777777801, "name": " Big Creek @ Km 1084.8 31 W", "Notes": " " }, "geometry": { "type": "Point", "coordinates": [ -129.70277777777801, 60.158333333333303 ] } },
{ "type": "Feature", "properties": { "NWSID": " BGCQ9 ", "startDate": "2011-11-23 00:00:00", "endDate": "2012-06-20 00:00:00", "lat": 60.158333333332997, "lon": -129.70277777778, "name": " Big Creek At Km 1084.8 31 W", "Notes": " " }, "geometry": { "type": "Point", "coordinates": [ -129.70277777778, 60.158333333332997 ] } },
{ "type": "Feature", "properties": { "NWSID": " BGCQ9 ", "startDate": "2012-06-20 00:00:00", "endDate": "2012-11-09 00:00:00", "lat": 60.158333333332997, "lon": -129.70277777778, "name": " Big Creek At Km 1084.8 31 W", "Notes": " " }, "geometry": { "type": "Point", "coordinates": [ -129.70277777778, 60.158333333332997 ] } },
{ "type": "Feature", "properties": { "NWSID": " BGCQ9 ", "startDate": "2012-11-09 00:00:00", "endDate": "2012-12-19 00:00:00", "lat": 60.158333333332997, "lon": -129.72833333333, "name": " Big Creek At Km 1084.8 31 W", "Notes": " " }, "geometry": { "type": "Point", "coordinates": [ -129.728333333329999, 60.158333333332997 ] } },
{ "type": "Feature", "properties": { "NWSID": " BGCQ9 ", "startDate": "2012-12-19 00:00:00", "endDate": "            ", "lat": 60.158333333332997, "lon": -129.70277777778, "name": " Big Creek At Km 1084.8 31 W", "Notes": " " }, "geometry": { "type": "Point", "coordinates": [ -129.70277777778, 60.158333333332997 ] } },
{ "type": "Feature", "properties": { "NWSID": " BGDA2 ", "startDate": "1989-06-30 00:00:00", "endDate": "1997-02-10 00:00:00", "lat": 64.08, "lon": -145.5, "name": " Big Delta", "Notes": " Wire-weight gage." }, "geometry": { "type": "Point", "coordinates": [ -145.5, 64.08 ] } },
{ "type": "Feature", "properties": { "NWSID": " BGDA2 ", "startDate": "1997-02-10 00:00:00", "endDate": "1999-12-31 00:00:00", "lat": 64.09, "lon": -145.51, "name": " Big Delta", "Notes": " Wire-weight gage." }, "geometry": { "type": "Point", "coordinates": [ -145.51, 64.09 ] } },
{ "type": "Feature", "properties": { "NWSID": " BGDA2 ", "startDate": "1969-07-01 00:00:00", "endDate": "2008-02-22 00:00:00", "lat": 64.1564, "lon": -145.845, "name": " Big Delta 9 NW", "Notes": " Wire-weight gage." }, "geometry": { "type": "Point", "coordinates": [ -145.845, 64.1564 ] } },
{ "type": "Feature", "properties": { "NWSID": " BGDA2 ", "startDate": "2008-02-22 00:00:00", "endDate": "2012-03-22 00:00:00", "lat": 64.156388888888998, "lon": -145.845, "name": " Tanana River At Big Delta 9 NW", "Notes": " Wire-weight gage." }, "geometry": { "type": "Point", "coordinates": [ -145.845, 64.156388888888998 ] } },
{ "type": "Feature", "properties": { "NWSID": " BGDA2 ", "startDate": "2012-03-22 00:00:00", "endDate": "            ", "lat": 64.156944444443994, "lon": -145.85138888889, "name": " Tanana River At Big Delta 9 NW", "Notes": " Wire-weight gage." }, "geometry": { "type": "Point", "coordinates": [ -145.85138888889, 64.156944444443994 ] } },
{ "type": "Feature", "properties": { "NWSID": " BGMQ9 ", "startDate": "2001-06-28 00:00:00", "endDate": "2008-02-22 00:00:00", "lat": 62.5686, "lon": -137.0161, "name": " Big Creek Near Mouth 41 NW", "Notes": " " }, "geometry": { "type": "Point", "coordinates": [ -137.0161, 62.5686 ] } },
{ "type": "Feature", "properties": { "NWSID": " BGMQ9 ", "startDate": "2008-02-22 00:00:00", "endDate": "            ", "lat": 62.568611111110997, "lon": -137.01611111111001, "name": " Big Creek Near Mouth 41 NW", "Notes": " " }, "geometry": { "type": "Point", "coordinates": [ -137.016111111110007, 62.568611111110997 ] } },
{ "type": "Feature", "properties": { "NWSID": " BRMA2 ", "startDate": "1979-10-01 00:00:00", "endDate": "2008-02-22 00:00:00", "lat": 59.7783, "lon": -150.7542, "name": " Middle Fork Bradley Nr Homer 28 ENE", "Notes": " USGS GAGE \/ BRADLEY PROJECT" }, "geometry": { "type": "Point", "coordinates": [ -150.7542, 59.7783 ] } },
{ "type": "Feature", "properties": { "NWSID": " BRMA2 ", "startDate": "2008-02-22 00:00:00", "endDate": "2012-11-09 00:00:00", "lat": 59.778333333333002, "lon": -150.75416666666999, "name": " Middle Fork Bradley Nr Homer 28 ENE", "Notes": " USGS GAGE \/ BRADLEY PROJECT" }, "geometry": { "type": "Point", "coordinates": [ -150.754166666669988, 59.778333333333002 ] } },
{ "type": "Feature", "properties": { "NWSID": " BRMA2 ", "startDate": "2012-11-09 00:00:00", "endDate": "2012-12-19 00:00:00", "lat": 59.778333333333002, "lon": -150.79222222222, "name": " Middle Fork Bradley Nr Homer 28 ENE", "Notes": " USGS GAGE \/ BRADLEY PROJECT" }, "geometry": { "type": "Point", "coordinates": [ -150.792222222220005, 59.778333333333002 ] } },
{ "type": "Feature", "properties": { "NWSID": " BRMA2 ", "startDate": "2012-12-19 00:00:00", "endDate": "            ", "lat": 59.778333333333002, "lon": -150.75416666666999, "name": " Middle Fork Bradley Nr Homer 28 ENE", "Notes": " USGS GAGE \/ BRADLEY PROJECT" }, "geometry": { "type": "Point", "coordinates": [ -150.754166666669988, 59.778333333333002 ] } },
{ "type": "Feature", "properties": { "NWSID": " BRNA2 ", "startDate": "2008-08-25 00:00:00", "endDate": "2012-06-20 00:00:00", "lat": 59.798333333332998, "lon": -150.86333333332999, "name": " Middle Fork Bradley Blw North Fork", "Notes": " USGS automated gage" }, "geometry": { "type": "Point", "coordinates": [ -150.86333333332999, 59.798333333332998 ] } },
{ "type": "Feature", "properties": { "NWSID": " BRNA2 ", "startDate": "2012-06-20 00:00:00", "endDate": "            ", "lat": 59.798333333332998, "lon": -150.86333333332999, "name": " Middle Fork Bradley Blw North Fork", "Notes": " USGS automated gage" }, "geometry": { "type": "Point", "coordinates": [ -150.86333333332999, 59.798333333332998 ] } },
{ "type": "Feature", "properties": { "NWSID": " BRRA2 ", "startDate": "1989-10-01 00:00:00", "endDate": "2008-02-22 00:00:00", "lat": 59.7583, "lon": -150.8506, "name": " Bradley River Blw Dam Nr Homer 25 ENE", "Notes": " USGS GAGE \/ BRADLEY PROJECT" }, "geometry": { "type": "Point", "coordinates": [ -150.8506, 59.7583 ] } },
{ "type": "Feature", "properties": { "NWSID": " BRRA2 ", "startDate": "2008-02-22 00:00:00", "endDate": "            ", "lat": 59.758333333332999, "lon": -150.85055555555999, "name": " Bradley River Blw Dam Nr Homer 25 ENE", "Notes": " USGS GAGE \/ BRADLEY PROJECT" }, "geometry": { "type": "Point", "coordinates": [ -150.850555555559993, 59.758333333332999 ] } },
{ "type": "Feature", "properties": { "NWSID": " BRTA2 ", "startDate": "1983-05-01 00:00:00", "endDate": "2008-02-22 00:00:00", "lat": 59.8017, "lon": -150.8828, "name": " Bradley River Nr Tidewater 25 ENE", "Notes": " USGS GAGE \/ BRADLEY PROJECT" }, "geometry": { "type": "Point", "coordinates": [ -150.8828, 59.8017 ] } },
{ "type": "Feature", "properties": { "NWSID": " BRTA2 ", "startDate": "2008-02-22 00:00:00", "endDate": "2009-07-07 00:00:00", "lat": 59.801666666667003, "lon": -150.88277777778001, "name": " Bradley River Nr Tidewater 25 ENE", "Notes": " USGS GAGE \/ BRADLEY PROJECT" }, "geometry": { "type": "Point", "coordinates": [ -150.882777777780007, 59.801666666667003 ] } },
{ "type": "Feature", "properties": { "NWSID": " BRTA2 ", "startDate": "2009-07-07 00:00:00", "endDate": "2012-11-09 00:00:00", "lat": 59.801666666667003, "lon": -150.88277777778001, "name": " Bradley River Nr Tidewater Nr Homer 25 ENE", "Notes": " USGS GAGE \/ BRADLEY PROJECT" }, "geometry": { "type": "Point", "coordinates": [ -150.882777777780007, 59.801666666667003 ] } },
{ "type": "Feature", "properties": { "NWSID": " BRTA2 ", "startDate": "2012-11-09 00:00:00", "endDate": "2012-12-19 00:00:00", "lat": 59.801666666667003, "lon": -151.02833333333001, "name": " Bradley River Nr Tidewater Nr Homer 25 ENE", "Notes": " USGS GAGE \/ BRADLEY PROJECT" }, "geometry": { "type": "Point", "coordinates": [ -151.028333333330011, 59.801666666667003 ] } },
{ "type": "Feature", "properties": { "NWSID": " BRTA2 ", "startDate": "2012-12-19 00:00:00", "endDate": "            ", "lat": 59.801666666667003, "lon": -150.88277777778001, "name": " Bradley River Nr Tidewater Nr Homer 25 ENE", "Notes": " USGS GAGE \/ BRADLEY PROJECT" }, "geometry": { "type": "Point", "coordinates": [ -150.882777777780007, 59.801666666667003 ] } },
{ "type": "Feature", "properties": { "NWSID": " BRUA2 ", "startDate": "1979-10-01 00:00:00", "endDate": "2008-02-22 00:00:00", "lat": 59.7006, "lon": -150.7025, "name": " Upper Bradley River Nr Nuka Glacier 29 E", "Notes": " USGS GAGE \/ BRADLEY PROJECT" }, "geometry": { "type": "Point", "coordinates": [ -150.7025, 59.7006 ] } },
{ "type": "Feature", "properties": { "NWSID": " BRUA2 ", "startDate": "2008-02-22 00:00:00", "endDate": "2009-07-07 00:00:00", "lat": 59.700555555556001, "lon": -150.7025, "name": " Upper Bradley River Nr Nuka Glacier 29 E", "Notes": " USGS GAGE \/ BRADLEY PROJECT" }, "geometry": { "type": "Point", "coordinates": [ -150.7025, 59.700555555556001 ] } },
{ "type": "Feature", "properties": { "NWSID": " BRUA2 ", "startDate": "2009-07-07 00:00:00", "endDate": "2011-01-06 00:00:00", "lat": 59.700555555556001, "lon": -150.7025, "name": " Upper Bradley River Nr Nuka Glacier Nr Homer 29 E", "Notes": " USGS GAGE \/ BRADLEY PROJECT" }, "geometry": { "type": "Point", "coordinates": [ -150.7025, 59.700555555556001 ] } },
{ "type": "Feature", "properties": { "NWSID": " BRUA2 ", "startDate": "2011-01-06 00:00:00", "endDate": "2011-07-22 00:00:00", "lat": 59.700555555556001, "lon": -150.72555555555999, "name": " Upper Bradley River Nr Nuka Glacier Nr Homer 29 E", "Notes": " USGS GAGE \/ BRADLEY PROJECT" }, "geometry": { "type": "Point", "coordinates": [ -150.725555555559993, 59.700555555556001 ] } },
{ "type": "Feature", "properties": { "NWSID": " BRUA2 ", "startDate": "2011-07-22 00:00:00", "endDate": "2012-11-09 00:00:00", "lat": 59.700555555556001, "lon": -150.7025, "name": " Upper Bradley River Nr Nuka Glacier Nr Homer 29 E", "Notes": " USGS GAGE \/ BRADLEY PROJECT" }, "geometry": { "type": "Point", "coordinates": [ -150.7025, 59.700555555556001 ] } },
{ "type": "Feature", "properties": { "NWSID": " BRUA2 ", "startDate": "2012-11-09 00:00:00", "endDate": "2012-12-19 00:00:00", "lat": 59.700555555556001, "lon": -150.72555555555999, "name": " Upper Bradley River Nr Nuka Glacier Nr Homer 29 E", "Notes": " USGS GAGE \/ BRADLEY PROJECT" }, "geometry": { "type": "Point", "coordinates": [ -150.725555555559993, 59.700555555556001 ] } },
{ "type": "Feature", "properties": { "NWSID": " BRUA2 ", "startDate": "2012-12-19 00:00:00", "endDate": "            ", "lat": 59.700555555556001, "lon": -150.7025, "name": " Upper Bradley River Nr Nuka Glacier Nr Homer 29 E", "Notes": " USGS GAGE \/ BRADLEY PROJECT" }, "geometry": { "type": "Point", "coordinates": [ -150.7025, 59.700555555556001 ] } },
{ "type": "Feature", "properties": { "NWSID": " BTTA2 ", "startDate": "1969-07-01 00:00:00", "endDate": "2008-02-22 00:00:00", "lat": 66.9167, "lon": -151.5, "name": " Bettles 98 N", "Notes": " Slope Profile." }, "geometry": { "type": "Point", "coordinates": [ -151.5, 66.9167 ] } },
{ "type": "Feature", "properties": { "NWSID": " BTTA2 ", "startDate": "2008-02-22 00:00:00", "endDate": "2008-12-23 00:00:00", "lat": 66.9166666666667, "lon": -151.5, "name": " Koyukuk River Nr Bettles 98 N", "Notes": " Slope Profile." }, "geometry": { "type": "Point", "coordinates": [ -151.5, 66.9166666666667 ] } },
{ "type": "Feature", "properties": { "NWSID": " BTTA2 ", "startDate": "2008-12-23 00:00:00", "endDate": "2012-01-23 00:00:00", "lat": 66.926111111110998, "lon": -151.50861111111001, "name": " Koyukuk River Nr Bettles 98 N", "Notes": " Slope Profile." }, "geometry": { "type": "Point", "coordinates": [ -151.508611111110014, 66.926111111110998 ] } },
{ "type": "Feature", "properties": { "NWSID": " BTTA2 ", "startDate": "2012-01-23 00:00:00", "endDate": "2012-08-25 00:00:00", "lat": 66.926111111110998, "lon": -151.50861111111001, "name": " Koyukuk River Nr Bettles 98 N", "Notes": " Slope Profile." }, "geometry": { "type": "Point", "coordinates": [ -151.508611111110014, 66.926111111110998 ] } },
{ "type": "Feature", "properties": { "NWSID": " BTTA2 ", "startDate": "2012-08-25 00:00:00", "endDate": "            ", "lat": 66.926111111110998, "lon": -151.58666666667, "name": " Koyukuk River Nr Bettles 98 N", "Notes": " Slope Profile." }, "geometry": { "type": "Point", "coordinates": [ -151.586666666669998, 66.926111111110998 ] } },
{ "type": "Feature", "properties": { "NWSID": " BVRQ9 ", "startDate": "2000-08-01 00:00:00", "endDate": "2008-02-22 00:00:00", "lat": 65.0167, "lon": -134.1333, "name": " Beaver River Blw Matson Creek 59 ENE", "Notes": " CANADIAN DCP BELOW MATSON CR." }, "geometry": { "type": "Point", "coordinates": [ -134.1333, 65.0167 ] } },
{ "type": "Feature", "properties": { "NWSID": " BVRQ9 ", "startDate": "2008-02-22 00:00:00", "endDate": "2010-05-11 00:00:00", "lat": 65.016666666667007, "lon": -134.13333333333, "name": " Beaver River Blw Matson Creek 59 ENE", "Notes": " CANADIAN DCP BELOW MATSON CR." }, "geometry": { "type": "Point", "coordinates": [ -134.13333333333, 65.016666666667007 ] } },
{ "type": "Feature", "properties": { "NWSID": " BVRQ9 ", "startDate": "2010-05-11 00:00:00", "endDate": "            ", "lat": 64.015, "lon": -134.13916666667001, "name": " Beaver River Blw Matson Creek 59 ENE", "Notes": " CANADIAN DCP BELOW MATSON CR." }, "geometry": { "type": "Point", "coordinates": [ -134.139166666670008, 64.015 ] } },
{ "type": "Feature", "properties": { "NWSID": " CCSA2 ", "startDate": "2000-04-01 00:00:00", "endDate": "1999-12-31 00:00:00", "lat": 61.1, "lon": -149.47, "name": " Campbell Creek Sci C", "Notes": " " }, "geometry": { "type": "Point", "coordinates": [ -149.47, 61.1 ] } },
{ "type": "Feature", "properties": { "NWSID": " CCSA2 ", "startDate": "2002-02-13 00:00:00", "endDate": "2008-02-22 00:00:00", "lat": 61.1381, "lon": -149.9222, "name": " Campbell Creek Nr Spenard 6 S", "Notes": " " }, "geometry": { "type": "Point", "coordinates": [ -149.9222, 61.1381 ] } },
{ "type": "Feature", "properties": { "NWSID": " CCSA2 ", "startDate": "2008-02-22 00:00:00", "endDate": "2012-06-20 00:00:00", "lat": 61.139444444444003, "lon": -149.92333333332999, "name": " Campbell Creek Nr Dimond 6 S", "Notes": " " }, "geometry": { "type": "Point", "coordinates": [ -149.923333333329992, 61.139444444444003 ] } },
{ "type": "Feature", "properties": { "NWSID": " CCSA2 ", "startDate": "2012-06-20 00:00:00", "endDate": "2012-11-09 00:00:00", "lat": 61.139444444444003, "lon": -149.92333333332999, "name": " Campbell Creek Nr Dimond 6 S", "Notes": " " }, "geometry": { "type": "Point", "coordinates": [ -149.923333333329992, 61.139444444444003 ] } },
{ "type": "Feature", "properties": { "NWSID": " CCSA2 ", "startDate": "2012-11-09 00:00:00", "endDate": "2012-12-19 00:00:00", "lat": 61.139444444444003, "lon": -149.98388888888999, "name": " Campbell Creek Nr Dimond 6 S", "Notes": " " }, "geometry": { "type": "Point", "coordinates": [ -149.983888888889993, 61.139444444444003 ] } },
{ "type": "Feature", "properties": { "NWSID": " CCSA2 ", "startDate": "2012-12-19 00:00:00", "endDate": "            ", "lat": 61.139444444444003, "lon": -149.92333333332999, "name": " Campbell Creek Nr Dimond 6 S", "Notes": " " }, "geometry": { "type": "Point", "coordinates": [ -149.923333333329992, 61.139444444444003 ] } },
{ "type": "Feature", "properties": { "NWSID": " CCTA2 ", "startDate": "2006-02-01 00:00:00", "endDate": "2008-02-22 00:00:00", "lat": 61.514444444444401, "lon": -144.43222222222201, "name": " COPPER RIVER AT CHITINA", "Notes": " " }, "geometry": { "type": "Point", "coordinates": [ -144.432222222222009, 61.514444444444401 ] } },
{ "type": "Feature", "properties": { "NWSID": " CCTA2 ", "startDate": "2008-02-22 00:00:00", "endDate": "2011-07-22 00:00:00", "lat": 61.514444444444003, "lon": -144.43222222221999, "name": " Copper River At Chitina 42 SW", "Notes": " " }, "geometry": { "type": "Point", "coordinates": [ -144.432222222219991, 61.514444444444003 ] } },
{ "type": "Feature", "properties": { "NWSID": " CCTA2 ", "startDate": "2011-07-22 00:00:00", "endDate": "2011-08-18 00:00:00", "lat": 61.525555555555997, "lon": -144.52277777777999, "name": " Copper River At Chitina 42 SW", "Notes": " " }, "geometry": { "type": "Point", "coordinates": [ -144.522777777779993, 61.525555555555997 ] } },
{ "type": "Feature", "properties": { "NWSID": " CCTA2 ", "startDate": "2011-08-18 00:00:00", "endDate": "            ", "lat": 61.525555555555997, "lon": -144.41222222222001, "name": " Copper River At Chitina 42 SW", "Notes": " " }, "geometry": { "type": "Point", "coordinates": [ -144.412222222220009, 61.525555555555997 ] } },
{ "type": "Feature", "properties": { "NWSID": " CCVA2 ", "startDate": "1996-09-01 00:00:00", "endDate": "2008-02-22 00:00:00", "lat": 70.4322, "lon": -150.4094, "name": " Colville Village 20 NE", "Notes": " Vertical staff gage?" }, "geometry": { "type": "Point", "coordinates": [ -150.4094, 70.4322 ] } },
{ "type": "Feature", "properties": { "NWSID": " CCVA2 ", "startDate": "2008-02-22 00:00:00", "endDate": "            ", "lat": 70.432222222221995, "lon": -150.40944444444, "name": " Colville Village 20 NE", "Notes": " Vertical staff gage?" }, "geometry": { "type": "Point", "coordinates": [ -150.409444444439998, 70.432222222221995 ] } },
{ "type": "Feature", "properties": { "NWSID": " CHFA2 ", "startDate": "1968-07-01 00:00:00", "endDate": "2008-02-22 00:00:00", "lat": 64.8458, "lon": -147.7011, "name": " Fairbanks 1 ENE", "Notes": " USGS GOES\/HADS river stage" }, "geometry": { "type": "Point", "coordinates": [ -147.7011, 64.8458 ] } },
{ "type": "Feature", "properties": { "NWSID": " CHFA2 ", "startDate": "2008-02-22 00:00:00", "endDate": "2012-06-20 00:00:00", "lat": 64.845833333333005, "lon": -147.70111111111001, "name": " Chena River At Fairbanks 1 ENE", "Notes": " USGS GOES\/HADS river stage" }, "geometry": { "type": "Point", "coordinates": [ -147.701111111110009, 64.845833333333005 ] } },
{ "type": "Feature", "properties": { "NWSID": " CHFA2 ", "startDate": "2012-06-20 00:00:00", "endDate": "            ", "lat": 64.845833333333005, "lon": -147.70111111111001, "name": " Chena River At Fairbanks 1 ENE", "Notes": " USGS GOES\/HADS river stage" }, "geometry": { "type": "Point", "coordinates": [ -147.701111111110009, 64.845833333333005 ] } },
{ "type": "Feature", "properties": { "NWSID": " CHLA2 ", "startDate": "1989-04-25 00:00:00", "endDate": "1997-02-22 00:00:00", "lat": 64.53, "lon": -147.15, "name": " Fairbanks 9 ENE", "Notes": " LARC." }, "geometry": { "type": "Point", "coordinates": [ -147.15, 64.53 ] } },
{ "type": "Feature", "properties": { "NWSID": " CHLA2 ", "startDate": "1997-02-22 00:00:00", "endDate": "1999-12-31 00:00:00", "lat": 64.53, "lon": -147.15, "name": " Fairbanks 9 ENE", "Notes": " LARC." }, "geometry": { "type": "Point", "coordinates": [ -147.15, 64.53 ] } },
{ "type": "Feature", "properties": { "NWSID": " CHLA2 ", "startDate": "1966-07-01 00:00:00", "endDate": "2008-02-22 00:00:00", "lat": 64.8861, "lon": -147.2472, "name": " Mile 12 BRIDGE 9 ENE", "Notes": " LARC." }, "geometry": { "type": "Point", "coordinates": [ -147.2472, 64.8861 ] } },
{ "type": "Feature", "properties": { "NWSID": " CHLA2 ", "startDate": "2008-02-22 00:00:00", "endDate": "2012-01-23 00:00:00", "lat": 64.886111111111006, "lon": -147.24722222221999, "name": " Little Chena River Nr Fairbanks 9 ENE", "Notes": " LARC." }, "geometry": { "type": "Point", "coordinates": [ -147.247222222219989, 64.886111111111006 ] } },
{ "type": "Feature", "properties": { "NWSID": " CHLA2 ", "startDate": "2012-01-23 00:00:00", "endDate": "2012-08-25 00:00:00", "lat": 64.885555555555996, "lon": -147.24944444444, "name": " Little Chena River Nr Fairbanks 14 ENE", "Notes": " LARC." }, "geometry": { "type": "Point", "coordinates": [ -147.249444444440002, 64.885555555555996 ] } },
{ "type": "Feature", "properties": { "NWSID": " CHLA2 ", "startDate": "2012-08-25 00:00:00", "endDate": "2015-05-19 00:00:00", "lat": 64.885555555555996, "lon": -147.395, "name": " Little Chena River Nr Fairbanks 14 ENE", "Notes": " LARC." }, "geometry": { "type": "Point", "coordinates": [ -147.395, 64.885555555555996 ] } },
{ "type": "Feature", "properties": { "NWSID": " CHLA2 ", "startDate": "2015-05-19 00:00:00", "endDate": "            ", "lat": 64.885555555555996, "lon": -147.247222, "name": " Little Chena River Nr Fairbanks 14 ENE", "Notes": " LARC." }, "geometry": { "type": "Point", "coordinates": [ -147.247222, 64.885555555555996 ] } },
{ "type": "Feature", "properties": { "NWSID": " CHRA2 ", "startDate": "1998-10-01 00:00:00", "endDate": "2008-02-22 00:00:00", "lat": 61.2053, "lon": -149.8333, "name": " Arctic Blvd 98 N", "Notes": " Chester Creek at Arctic Blvd" }, "geometry": { "type": "Point", "coordinates": [ -149.8333, 61.2053 ] } },
{ "type": "Feature", "properties": { "NWSID": " CHRA2 ", "startDate": "2008-02-22 00:00:00", "endDate": "            ", "lat": 61.205277777778001, "lon": -149.89527777778, "name": " Chester Creek At Arctic Blvd 98 N", "Notes": " Chester Creek at Arctic Blvd" }, "geometry": { "type": "Point", "coordinates": [ -149.895277777779995, 61.205277777778001 ] } },
{ "type": "Feature", "properties": { "NWSID": " CIRA2 ", "startDate": "1999-11-08 00:00:00", "endDate": "1999-12-31 00:00:00", "lat": 65.5, "lon": -144.04, "name": " Circle", "Notes": null }, "geometry": { "type": "Point", "coordinates": [ -144.04, 65.5 ] } },
{ "type": "Feature", "properties": { "NWSID": " CIRA2 ", "startDate": "1969-06-12 00:00:00", "endDate": "2008-02-22 00:00:00", "lat": 65.8272, "lon": -144.0614, "name": " Circle 98 N", "Notes": null }, "geometry": { "type": "Point", "coordinates": [ -144.0614, 65.8272 ] } },
{ "type": "Feature", "properties": { "NWSID": " CIRA2 ", "startDate": "2008-02-22 00:00:00", "endDate": "            ", "lat": 65.827222222222204, "lon": -144.06138888888901, "name": " Yukon River At Circle 98 N", "Notes": null }, "geometry": { "type": "Point", "coordinates": [ -144.061388888889013, 65.827222222222204 ] } },
{ "type": "Feature", "properties": { "NWSID": " CJXA2 ", "startDate": "1951-06-01 00:00:00", "endDate": "2008-02-22 00:00:00", "lat": 61.8711, "lon": -158.1008, "name": " Crooked Creek 98 N", "Notes": " USGS GOES\/HADS river stage" }, "geometry": { "type": "Point", "coordinates": [ -158.1008, 61.8711 ] } },
{ "type": "Feature", "properties": { "NWSID": " CJXA2 ", "startDate": "2008-02-22 00:00:00", "endDate": "            ", "lat": 61.869444444443999, "lon": -158.11138888888999, "name": " Kuskokwim River At Crooked Creek 98 N", "Notes": " USGS GOES\/HADS river stage" }, "geometry": { "type": "Point", "coordinates": [ -158.111388888889991, 61.869444444443999 ] } },
{ "type": "Feature", "properties": { "NWSID": " CKDA2 ", "startDate": "2007-07-31 00:00:00", "endDate": "2008-06-16 00:00:00", "lat": 61.871666666666997, "lon": -158.12361111110999, "name": " Crooked Creek At Airport Rd Bridge", "Notes": " " }, "geometry": { "type": "Point", "coordinates": [ -158.123611111109994, 61.871666666666997 ] } },
{ "type": "Feature", "properties": { "NWSID": " CKDA2 ", "startDate": "2008-06-16 00:00:00", "endDate": "2012-06-20 00:00:00", "lat": 61.871388888889001, "lon": -158.11972222221999, "name": " Crooked Creek At Airport Rd Bridge", "Notes": " " }, "geometry": { "type": "Point", "coordinates": [ -158.119722222219991, 61.871388888889001 ] } },
{ "type": "Feature", "properties": { "NWSID": " CKDA2 ", "startDate": "2012-06-20 00:00:00", "endDate": "            ", "lat": 61.89, "lon": -158.15444444444, "name": " Crooked Creek At Airport Rd Bridge", "Notes": " " }, "geometry": { "type": "Point", "coordinates": [ -158.154444444440003, 61.89 ] } },
{ "type": "Feature", "properties": { "NWSID": " CKTA2 ", "startDate": "1998-05-10 00:00:00", "endDate": "2008-02-22 00:00:00", "lat": 59.4314, "lon": -135.8928, "name": " Klukwan 98 N", "Notes": " USGS GOES\/HADS RIVER STAGE" }, "geometry": { "type": "Point", "coordinates": [ -135.8928, 59.4314 ] } },
{ "type": "Feature", "properties": { "NWSID": " CKTA2 ", "startDate": "2008-02-22 00:00:00", "endDate": "2010-05-11 00:00:00", "lat": 59.431388888888897, "lon": -135.89277777777801, "name": " Chilkat River At Klukwan 98 N", "Notes": " USGS GOES\/HADS RIVER STAGE" }, "geometry": { "type": "Point", "coordinates": [ -135.892777777778008, 59.431388888888897 ] } },
{ "type": "Feature", "properties": { "NWSID": " CKTA2 ", "startDate": "2010-05-11 00:00:00", "endDate": "2013-02-21 00:00:00", "lat": 59.415555555555997, "lon": -135.9325, "name": " Chilkat River At Klukwan 98 N", "Notes": " USGS GOES\/HADS RIVER STAGE" }, "geometry": { "type": "Point", "coordinates": [ -135.9325, 59.415555555555997 ] } },
{ "type": "Feature", "properties": { "NWSID": " CKTA2 ", "startDate": "2013-02-21 00:00:00", "endDate": "2014-05-21 00:00:00", "lat": 59.415277777778002, "lon": -135.92916666667, "name": " Chilkat River At Klukwan 98 N", "Notes": " USGS GOES\/HADS RIVER STAGE" }, "geometry": { "type": "Point", "coordinates": [ -135.92916666667, 59.415277777778002 ] } },
{ "type": "Feature", "properties": { "NWSID": " CKTA2 ", "startDate": "2014-05-21 00:00:00", "endDate": "2014-11-05 00:00:00", "lat": 59.415277777778002, "lon": -135.92916666667, "name": " Chilkat River At Klukwan 98 N", "Notes": " USGS GOES\/HADS RIVER STAGE" }, "geometry": { "type": "Point", "coordinates": [ -135.92916666667, 59.415277777778002 ] } },
{ "type": "Feature", "properties": { "NWSID": " CKTA2 ", "startDate": "2014-11-05 00:00:00", "endDate": "            ", "lat": 59.415, "lon": -135.93305555556, "name": " Chilkat River At Klukwan 98 N", "Notes": " USGS GOES\/HADS RIVER STAGE" }, "geometry": { "type": "Point", "coordinates": [ -135.933055555560003, 59.415 ] } },
{ "type": "Feature", "properties": { "NWSID": " COCA2 ", "startDate": "1998-12-09 00:00:00", "endDate": "2008-02-22 00:00:00", "lat": 60.475, "lon": -149.875, "name": " Cooper Creek At Mouth 2 W", "Notes": " SUTRON-DCPS" }, "geometry": { "type": "Point", "coordinates": [ -149.875, 60.475 ] } },
{ "type": "Feature", "properties": { "NWSID": " COCA2 ", "startDate": "2008-02-22 00:00:00", "endDate": "2008-12-23 00:00:00", "lat": 60.480555555556002, "lon": -149.88055555555999, "name": " Cooper Creek At Mouth Nr Cooper Landing 2 W", "Notes": " SUTRON-DCPS" }, "geometry": { "type": "Point", "coordinates": [ -149.880555555559994, 60.480555555556002 ] } },
{ "type": "Feature", "properties": { "NWSID": " COCA2 ", "startDate": "2008-12-23 00:00:00", "endDate": "2016-09-10 00:00:00", "lat": 60.483888888888998, "lon": -149.88027777778001, "name": " Cooper Creek At Mouth Nr Cooper Landing 2 W", "Notes": " SUTRON-DCPS" }, "geometry": { "type": "Point", "coordinates": [ -149.880277777780009, 60.483888888888998 ] } },
{ "type": "Feature", "properties": { "NWSID": " COCA2 ", "startDate": "2016-09-10 00:00:00", "endDate": "            ", "lat": 60.4799795, "lon": -149.882711, "name": " Cooper Creek At Mouth Nr Cooper Landing 2 W", "Notes": " SUTRON-DCPS" }, "geometry": { "type": "Point", "coordinates": [ -149.882711, 60.4799795 ] } },
{ "type": "Feature", "properties": { "NWSID": " COOA2 ", "startDate": "1947-05-01 00:00:00", "endDate": "2008-02-22 00:00:00", "lat": 60.4928, "lon": -149.8078, "name": " Cooper Landing 6 W", "Notes": " USGS GOES\/HADS river site" }, "geometry": { "type": "Point", "coordinates": [ -149.8078, 60.4928 ] } },
{ "type": "Feature", "properties": { "NWSID": " COOA2 ", "startDate": "2008-02-22 00:00:00", "endDate": "2012-01-23 00:00:00", "lat": 60.492777777778002, "lon": -149.80777777777999, "name": " Kenai River At Cooper Landing 6 E", "Notes": " USGS GOES\/HADS river site" }, "geometry": { "type": "Point", "coordinates": [ -149.807777777779989, 60.492777777778002 ] } },
{ "type": "Feature", "properties": { "NWSID": " COOA2 ", "startDate": "2012-01-23 00:00:00", "endDate": "2012-11-09 00:00:00", "lat": 60.492777777778002, "lon": -149.80777777777999, "name": " Kenai River At Cooper Landing", "Notes": " USGS GOES\/HADS river site" }, "geometry": { "type": "Point", "coordinates": [ -149.807777777779989, 60.492777777778002 ] } },
{ "type": "Feature", "properties": { "NWSID": " COOA2 ", "startDate": "2012-11-09 00:00:00", "endDate": "2012-12-19 00:00:00", "lat": 60.492777777778002, "lon": -149.87833333333, "name": " Kenai River At Cooper Landing", "Notes": " USGS GOES\/HADS river site" }, "geometry": { "type": "Point", "coordinates": [ -149.878333333330005, 60.492777777778002 ] } },
{ "type": "Feature", "properties": { "NWSID": " COOA2 ", "startDate": "2012-12-19 00:00:00", "endDate": "            ", "lat": 60.492777777778002, "lon": -149.80777777777999, "name": " Kenai River At Cooper Landing", "Notes": " USGS GOES\/HADS river site" }, "geometry": { "type": "Point", "coordinates": [ -149.807777777779989, 60.492777777778002 ] } },
{ "type": "Feature", "properties": { "NWSID": " CRHA2 ", "startDate": "1984-12-13 00:00:00", "endDate": "2008-02-22 00:00:00", "lat": 64.86, "lon": -146.8033, "name": " Hunts Creek 26 WSW", "Notes": " Meteorburst" }, "geometry": { "type": "Point", "coordinates": [ -146.8033, 64.86 ] } },
{ "type": "Feature", "properties": { "NWSID": " CRHA2 ", "startDate": "2008-02-22 00:00:00", "endDate": "2011-06-27 00:00:00", "lat": 64.86, "lon": -146.803333333333, "name": " Chena River Blw Hunts Creek 26 WSW", "Notes": " Meteorburst" }, "geometry": { "type": "Point", "coordinates": [ -146.803333333333001, 64.86 ] } },
{ "type": "Feature", "properties": { "NWSID": " CRHA2 ", "startDate": "2011-06-27 00:00:00", "endDate": "            ", "lat": 64.86, "lon": -146.80333333332999, "name": " Chena River Blw Hunts Creek 26 WSW", "Notes": " Meteorburst" }, "geometry": { "type": "Point", "coordinates": [ -146.803333333329988, 64.86 ] } },
{ "type": "Feature", "properties": { "NWSID": " CRNA2 ", "startDate": "1949-07-11 00:00:00", "endDate": "2008-02-22 00:00:00", "lat": 63.0064, "lon": -141.8047, "name": " Northway Rd Brg 5 NE", "Notes": null }, "geometry": { "type": "Point", "coordinates": [ -141.8047, 63.0064 ] } },
{ "type": "Feature", "properties": { "NWSID": " CRNA2 ", "startDate": "2008-02-22 00:00:00", "endDate": "2012-08-14 00:00:00", "lat": 63.0063888888889, "lon": -141.80472222222201, "name": " Chisana River At Northway 5 NE", "Notes": null }, "geometry": { "type": "Point", "coordinates": [ -141.804722222222011, 63.0063888888889 ] } },
{ "type": "Feature", "properties": { "NWSID": " CRNA2 ", "startDate": "2012-08-14 00:00:00", "endDate": "            ", "lat": 63.006388888888999, "lon": -141.80694444444001, "name": " Chisana River At Northway 5 NE", "Notes": null }, "geometry": { "type": "Point", "coordinates": [ -141.806944444440006, 63.006388888888999 ] } },
{ "type": "Feature", "properties": { "NWSID": " CRSA2 ", "startDate": "1974-10-01 00:00:00", "endDate": "2008-02-22 00:00:00", "lat": 65.1906, "lon": -147.2542, "name": " Steese Hwy Brg 24 NE", "Notes": " Wire-weight gage." }, "geometry": { "type": "Point", "coordinates": [ -147.2542, 65.1906 ] } },
{ "type": "Feature", "properties": { "NWSID": " CRSA2 ", "startDate": "2008-02-22 00:00:00", "endDate": "            ", "lat": 65.190555555556003, "lon": -147.25416666666999, "name": " Chatanika River At Steese Hwy Bridge 24 NE", "Notes": " Wire-weight gage." }, "geometry": { "type": "Point", "coordinates": [ -147.254166666669988, 65.190555555556003 ] } },
{ "type": "Feature", "properties": { "NWSID": " CRUA2 ", "startDate": "2002-07-07 00:00:00", "endDate": "2008-02-22 00:00:00", "lat": 69.3764, "lon": -152.0945, "name": " Colville River At Umiat", "Notes": " USGS GOES\/HADS river stage" }, "geometry": { "type": "Point", "coordinates": [ -152.0945, 69.3764 ] } },
{ "type": "Feature", "properties": { "NWSID": " CRUA2 ", "startDate": "2008-02-22 00:00:00", "endDate": "2009-07-07 00:00:00", "lat": 69.360555555556004, "lon": -152.12166666667, "name": " Colville River At Umiat", "Notes": " USGS GOES\/HADS river stage" }, "geometry": { "type": "Point", "coordinates": [ -152.121666666669995, 69.360555555556004 ] } },
{ "type": "Feature", "properties": { "NWSID": " CRUA2 ", "startDate": "2009-07-07 00:00:00", "endDate": "2012-06-20 00:00:00", "lat": 69.360555555556004, "lon": -152.12166666667, "name": " Colville River Near Umiat", "Notes": " USGS GOES\/HADS river stage" }, "geometry": { "type": "Point", "coordinates": [ -152.121666666669995, 69.360555555556004 ] } },
{ "type": "Feature", "properties": { "NWSID": " CRUA2 ", "startDate": "2012-06-20 00:00:00", "endDate": "            ", "lat": 69.360555555556004, "lon": -152.12166666667, "name": " Colville River Near Umiat", "Notes": " USGS GOES\/HADS river stage" }, "geometry": { "type": "Point", "coordinates": [ -152.121666666669995, 69.360555555556004 ] } },
{ "type": "Feature", "properties": { "NWSID": " CRWA2 ", "startDate": "2017-05-31 00:00:00", "endDate": "2017-06-28 00:00:00", "lat": 56.2622, "lon": -158.7053, "name": " Chignik River Below Chignik Lake 2 ENE", "Notes": " " }, "geometry": { "type": "Point", "coordinates": [ -158.7053, 56.2622 ] } },
{ "type": "Feature", "properties": { "NWSID": " CRWA2 ", "startDate": "2017-06-28 00:00:00", "endDate": "2017-06-29 00:00:00", "lat": 56.262222222222199, "lon": -158.70527777777801, "name": " Chignik River Below Chignik Lake", "Notes": " " }, "geometry": { "type": "Point", "coordinates": [ -158.705277777778008, 56.262222222222199 ] } },
{ "type": "Feature", "properties": { "NWSID": " CRWA2 ", "startDate": "2017-06-29 00:00:00", "endDate": "            ", "lat": 56.262222222222, "lon": -158.75333333333, "name": " Chignik River Below Chignik Lake 2 ENE", "Notes": " " }, "geometry": { "type": "Point", "coordinates": [ -158.753333333330005, 56.262222222222 ] } },
{ "type": "Feature", "properties": { "NWSID": " CSRA2 ", "startDate": "1989-03-29 00:00:00", "endDate": "1999-12-31 00:00:00", "lat": 61.09, "lon": -149.43, "name": " Anchorage 7 SE", "Notes": null }, "geometry": { "type": "Point", "coordinates": [ -149.43, 61.09 ] } },
{ "type": "Feature", "properties": { "NWSID": " CSRA2 ", "startDate": "1966-09-28 00:00:00", "endDate": "2008-02-22 00:00:00", "lat": 61.1478, "lon": -149.72, "name": " Canyon Mouth 7 SE", "Notes": null }, "geometry": { "type": "Point", "coordinates": [ -149.72, 61.1478 ] } },
{ "type": "Feature", "properties": { "NWSID": " CSRA2 ", "startDate": "2008-02-22 00:00:00", "endDate": "2012-01-23 00:00:00", "lat": 61.148888888888997, "lon": -149.72944444443999, "name": " South Fork Campbell Creek 7 SE", "Notes": null }, "geometry": { "type": "Point", "coordinates": [ -149.729444444439991, 61.148888888888997 ] } },
{ "type": "Feature", "properties": { "NWSID": " CSRA2 ", "startDate": "2012-01-23 00:00:00", "endDate": "            ", "lat": 61.148888888888997, "lon": -149.72944444443999, "name": " South Fork Campbell Creek 7 SE", "Notes": null }, "geometry": { "type": "Point", "coordinates": [ -149.729444444439991, 61.148888888888997 ] } },
{ "type": "Feature", "properties": { "NWSID": " DANA2 ", "startDate": "2018-10-01 00:00:00", "endDate": "            ", "lat": 59.4175, "lon": -139.0175, "name": " Dangerous River At Harlequim Lake Outlet", "Notes": " " }, "geometry": { "type": "Point", "coordinates": [ -139.0175, 59.4175 ] } },
{ "type": "Feature", "properties": { "NWSID": " DCKA2 ", "startDate": "1988-04-01 00:00:00", "endDate": "2008-02-22 00:00:00", "lat": 66.9461, "lon": -156.9089, "name": " Dahl Creek Nr Kobuk 3 N", "Notes": " USGS GOES\/HADS river stage" }, "geometry": { "type": "Point", "coordinates": [ -156.9089, 66.9461 ] } },
{ "type": "Feature", "properties": { "NWSID": " DCKA2 ", "startDate": "2008-02-22 00:00:00", "endDate": "2012-06-20 00:00:00", "lat": 66.946111111110994, "lon": -156.90888888889, "name": " Dahl Creek Nr Kobuk 3 N", "Notes": " USGS GOES\/HADS river stage" }, "geometry": { "type": "Point", "coordinates": [ -156.908888888890004, 66.946111111110994 ] } },
{ "type": "Feature", "properties": { "NWSID": " DCKA2 ", "startDate": "2012-06-20 00:00:00", "endDate": "            ", "lat": 66.946111111110994, "lon": -156.90888888889, "name": " Dahl Creek Nr Kobuk 3 N", "Notes": " USGS GOES\/HADS river stage" }, "geometry": { "type": "Point", "coordinates": [ -156.908888888890004, 66.946111111110994 ] } },
{ "type": "Feature", "properties": { "NWSID": " DELA2 ", "startDate": "2004-07-01 00:00:00", "endDate": "2008-02-22 00:00:00", "lat": 63.2031, "lon": -145.8142, "name": " Delta River", "Notes": null }, "geometry": { "type": "Point", "coordinates": [ -145.8142, 63.2031 ] } },
{ "type": "Feature", "properties": { "NWSID": " DELA2 ", "startDate": "2008-02-22 00:00:00", "endDate": "            ", "lat": 63.203055555555601, "lon": -145.81416666666701, "name": " Delta River", "Notes": null }, "geometry": { "type": "Point", "coordinates": [ -145.814166666667006, 63.203055555555601 ] } },
{ "type": "Feature", "properties": { "NWSID": " DEPA2 ", "startDate": "2017-05-19 00:00:00", "endDate": "            ", "lat": 60.0297, "lon": -151.6832, "name": " Deep Creek At Sterling Highway Near Ninilchik", "Notes": " " }, "geometry": { "type": "Point", "coordinates": [ -151.6832, 60.0297 ] } },
{ "type": "Feature", "properties": { "NWSID": " DEZQ9 ", "startDate": "2009-01-05 00:00:00", "endDate": "            ", "lat": 60.748055555556, "lon": -137.50833333333, "name": " Dezadeash River At Haines Junction", "Notes": " " }, "geometry": { "type": "Point", "coordinates": [ -137.50833333333, 60.748055555556 ] } },
{ "type": "Feature", "properties": { "NWSID": " EGGA2 ", "startDate": "2013-09-20 00:00:00", "endDate": "2016-08-03 00:00:00", "lat": 58.039722222222203, "lon": -156.845, "name": " Egegik River Near King Salmon", "Notes": " " }, "geometry": { "type": "Point", "coordinates": [ -156.845, 58.039722222222203 ] } },
{ "type": "Feature", "properties": { "NWSID": " EGGA2 ", "startDate": "2016-08-03 00:00:00", "endDate": "            ", "lat": 58.039722222221997, "lon": -156.845, "name": " Egegik River Near King Salmon", "Notes": " " }, "geometry": { "type": "Point", "coordinates": [ -156.845, 58.039722222221997 ] } },
{ "type": "Feature", "properties": { "NWSID": " ENNA2 ", "startDate": "1962-05-01 00:00:00", "endDate": "2008-02-22 00:00:00", "lat": 64.5653, "lon": -149.0917, "name": " Dock At Nenana 2 ESE", "Notes": " NWS GOES\/HADS & USGS GAUGE" }, "geometry": { "type": "Point", "coordinates": [ -149.0917, 64.5653 ] } },
{ "type": "Feature", "properties": { "NWSID": " ENNA2 ", "startDate": "2008-02-22 00:00:00", "endDate": "            ", "lat": 64.565277777777993, "lon": -149.09166666666999, "name": " Tanana River At Nenana 2 ESE", "Notes": " NWS GOES\/HADS & USGS GAUGE" }, "geometry": { "type": "Point", "coordinates": [ -149.091666666669994, 64.565277777777993 ] } },
{ "type": "Feature", "properties": { "NWSID": " ERBA2 ", "startDate": "1965-01-01 00:00:00", "endDate": "2008-02-22 00:00:00", "lat": 61.3108, "lon": -149.5744, "name": " Glenn Hwy Brg 1 S", "Notes": " Vertical staff gage." }, "geometry": { "type": "Point", "coordinates": [ -149.5744, 61.3108 ] } },
{ "type": "Feature", "properties": { "NWSID": " ERBA2 ", "startDate": "2008-02-22 00:00:00", "endDate": "2011-07-12 00:00:00", "lat": 61.310833333333001, "lon": -149.57444444443999, "name": " Eagle River At Glenn Hwy Bridge 1 S", "Notes": " Vertical staff gage." }, "geometry": { "type": "Point", "coordinates": [ -149.57444444443999, 61.310833333333001 ] } },
{ "type": "Feature", "properties": { "NWSID": " ERBA2 ", "startDate": "2011-07-12 00:00:00", "endDate": "            ", "lat": 61.310277777777998, "lon": -149.57694444443999, "name": " Eagle River At Glenn Hwy Bridge 1 S", "Notes": " Vertical staff gage." }, "geometry": { "type": "Point", "coordinates": [ -149.576944444439988, 61.310277777777998 ] } },
{ "type": "Feature", "properties": { "NWSID": " ERLA2 ", "startDate": "2015-06-05 00:00:00", "endDate": "2016-08-03 00:00:00", "lat": 61.3109, "lon": -149.6878, "name": " Eagle River At Fort Richardson", "Notes": " NWS Igage" }, "geometry": { "type": "Point", "coordinates": [ -149.6878, 61.3109 ] } },
{ "type": "Feature", "properties": { "NWSID": " ERLA2 ", "startDate": "2016-08-03 00:00:00", "endDate": "2018-02-17 00:00:00", "lat": 61.310833333333001, "lon": -149.68777777778001, "name": " Eagle River At Fort Richardson", "Notes": " NWS Igage" }, "geometry": { "type": "Point", "coordinates": [ -149.687777777780013, 61.310833333333001 ] } },
{ "type": "Feature", "properties": { "NWSID": " ERLA2 ", "startDate": "2018-02-17 00:00:00", "endDate": "            ", "lat": 61.310833333333001, "lon": -149.68777777778001, "name": " Eagle River At Jber-richardson", "Notes": " NWS Igage" }, "geometry": { "type": "Point", "coordinates": [ -149.687777777780013, 61.310833333333001 ] } },
{ "type": "Feature", "properties": { "NWSID": " EXTA2 ", "startDate": "1983-06-01 00:00:00", "endDate": "2008-02-22 00:00:00", "lat": 60.1867, "lon": -149.625, "name": " Visitors Center 8 NW", "Notes": null }, "geometry": { "type": "Point", "coordinates": [ -149.625, 60.1867 ] } },
{ "type": "Feature", "properties": { "NWSID": " EXTA2 ", "startDate": "2008-02-22 00:00:00", "endDate": "            ", "lat": 60.186666666667001, "lon": -149.625, "name": " Exit Glacier Nr Visitors Center 8 NW", "Notes": null }, "geometry": { "type": "Point", "coordinates": [ -149.625, 60.186666666667001 ] } },
{ "type": "Feature", "properties": { "NWSID": " EYAA2 ", "startDate": "2006-08-25 00:00:00", "endDate": "2008-02-22 00:00:00", "lat": 60.531111, "lon": -145.644444, "name": " CORDOVA", "Notes": " " }, "geometry": { "type": "Point", "coordinates": [ -145.644444, 60.531111 ] } },
{ "type": "Feature", "properties": { "NWSID": " EYAA2 ", "startDate": "2008-02-22 00:00:00", "endDate": "            ", "lat": 60.531111111111002, "lon": -145.64444444444001, "name": " Eyak River At Copper River Hwy", "Notes": " " }, "geometry": { "type": "Point", "coordinates": [ -145.644444444440012, 60.531111111111002 ] } },
{ "type": "Feature", "properties": { "NWSID": " EYLA2 ", "startDate": "2008-09-24 00:00:00", "endDate": "            ", "lat": 60.551388888889001, "lon": -145.69138888889, "name": " Eyak Lake", "Notes": " Staff gage" }, "geometry": { "type": "Point", "coordinates": [ -145.691388888890003, 60.551388888889001 ] } },
{ "type": "Feature", "properties": { "NWSID": " FCCA2 ", "startDate": "2010-10-26 00:00:00", "endDate": "2011-06-27 00:00:00", "lat": 65.009722222221995, "lon": -147.19833333333, "name": " Fish Creek Near Chatanika", "Notes": " USGS GOES\/HADS river stage" }, "geometry": { "type": "Point", "coordinates": [ -147.198333333329998, 65.009722222221995 ] } },
{ "type": "Feature", "properties": { "NWSID": " FCCA2 ", "startDate": "2011-06-27 00:00:00", "endDate": "2011-07-12 00:00:00", "lat": 65.009722222221995, "lon": -147.19833333333, "name": " Fish Creek Near Chatanika", "Notes": " USGS GOES\/HADS river stage" }, "geometry": { "type": "Point", "coordinates": [ -147.198333333329998, 65.009722222221995 ] } },
{ "type": "Feature", "properties": { "NWSID": " FCCA2 ", "startDate": "2011-07-12 00:00:00", "endDate": "2012-06-20 00:00:00", "lat": 65.009722222221995, "lon": -147.19833333333, "name": " Fish Creek Near Chatanika", "Notes": " USGS GOES\/HADS river stage" }, "geometry": { "type": "Point", "coordinates": [ -147.198333333329998, 65.009722222221995 ] } },
{ "type": "Feature", "properties": { "NWSID": " FCCA2 ", "startDate": "2012-06-20 00:00:00", "endDate": "            ", "lat": 65.009722222221995, "lon": -147.19833333333, "name": " Fish Creek Near Chatanika", "Notes": " USGS GOES\/HADS river stage" }, "geometry": { "type": "Point", "coordinates": [ -147.198333333329998, 65.009722222221995 ] } },
{ "type": "Feature", "properties": { "NWSID": " FCKA2 ", "startDate": "2000-07-29 00:00:00", "endDate": "2008-02-22 00:00:00", "lat": 55.3919, "lon": -131.1939, "name": " Fish Creek Nr Ketchikan 20 E", "Notes": " USGS GOES\/HADS river stage" }, "geometry": { "type": "Point", "coordinates": [ -131.1939, 55.3919 ] } },
{ "type": "Feature", "properties": { "NWSID": " FCKA2 ", "startDate": "2008-02-22 00:00:00", "endDate": "            ", "lat": 55.391944444444, "lon": -131.19388888889, "name": " Fish Creek Nr Ketchikan 20 E", "Notes": " USGS GOES\/HADS river stage" }, "geometry": { "type": "Point", "coordinates": [ -131.193888888890001, 55.391944444444 ] } },
{ "type": "Feature", "properties": { "NWSID": " FLSA2 ", "startDate": "2004-04-29 00:00:00", "endDate": "2008-02-22 00:00:00", "lat": 56.6822, "lon": -132.9222, "name": " Falls Creek Near Petersburg", "Notes": " FALLS CREEK NEAR PETERSBURG" }, "geometry": { "type": "Point", "coordinates": [ -132.9222, 56.6822 ] } },
{ "type": "Feature", "properties": { "NWSID": " FLSA2 ", "startDate": "2008-02-22 00:00:00", "endDate": "2016-10-12 00:00:00", "lat": 56.682222222222002, "lon": -132.92222222222, "name": " Falls Creek Near Petersburg 9 S", "Notes": " FALLS CREEK NEAR PETERSBURG" }, "geometry": { "type": "Point", "coordinates": [ -132.92222222222, 56.682222222222002 ] } },
{ "type": "Feature", "properties": { "NWSID": " FLSA2 ", "startDate": "2016-10-12 00:00:00", "endDate": "            ", "lat": 56.6817, "lon": -132.9235, "name": " Falls Creek Near Petersburg 9 S", "Notes": " FALLS CREEK NEAR PETERSBURG" }, "geometry": { "type": "Point", "coordinates": [ -132.9235, 56.6817 ] } },
{ "type": "Feature", "properties": { "NWSID": " FMKA2 ", "startDate": "1989-09-01 00:00:00", "endDate": "2008-02-22 00:00:00", "lat": 64.0761, "lon": -141.6306, "name": " Walker Fork At Taylor Hwy 9 E", "Notes": " " }, "geometry": { "type": "Point", "coordinates": [ -141.6306, 64.0761 ] } },
{ "type": "Feature", "properties": { "NWSID": " FMKA2 ", "startDate": "2008-02-22 00:00:00", "endDate": "            ", "lat": 64.076111111111004, "lon": -141.63055555555999, "name": " Walker Fork 40 Mile At Taylor Hwy 9 E", "Notes": " " }, "geometry": { "type": "Point", "coordinates": [ -141.630555555559994, 64.076111111111004 ] } },
{ "type": "Feature", "properties": { "NWSID": " FMMA2 ", "startDate": "1989-09-01 00:00:00", "endDate": "2008-02-22 00:00:00", "lat": 64.0661, "lon": -141.9972, "name": " Mosquito Fork At Taylor Hwy 2 WSW", "Notes": " " }, "geometry": { "type": "Point", "coordinates": [ -141.9972, 64.0661 ] } },
{ "type": "Feature", "properties": { "NWSID": " FMMA2 ", "startDate": "2008-02-22 00:00:00", "endDate": "            ", "lat": 64.066111111110999, "lon": -141.99722222221999, "name": " Mosquito Fork Of The 40 Mile At Taylor Hwy 2 WSW", "Notes": " " }, "geometry": { "type": "Point", "coordinates": [ -141.997222222219989, 64.066111111110999 ] } },
{ "type": "Feature", "properties": { "NWSID": " FMRA2 ", "startDate": "2000-09-26 00:00:00", "endDate": "2008-02-22 00:00:00", "lat": 64.2797, "lon": -141.3133, "name": " Taylor Hwy 24 NE", "Notes": " USGS GOES\/HADS river stage" }, "geometry": { "type": "Point", "coordinates": [ -141.3133, 64.2797 ] } },
{ "type": "Feature", "properties": { "NWSID": " FMRA2 ", "startDate": "2008-02-22 00:00:00", "endDate": "2009-09-01 00:00:00", "lat": 64.279722222222006, "lon": -141.31333333333001, "name": " Fortymile River At Taylor Hwy 24 NE", "Notes": " USGS GOES\/HADS river stage" }, "geometry": { "type": "Point", "coordinates": [ -141.313333333330007, 64.279722222222006 ] } },
{ "type": "Feature", "properties": { "NWSID": " FMRA2 ", "startDate": "2009-09-01 00:00:00", "endDate": "2009-09-11 00:00:00", "lat": 64.309166666666997, "lon": -141.40222222221999, "name": " Fortymile River At Taylor Hwy 24 NE", "Notes": " USGS GOES\/HADS river stage" }, "geometry": { "type": "Point", "coordinates": [ -141.40222222221999, 64.309166666666997 ] } },
{ "type": "Feature", "properties": { "NWSID": " FMRA2 ", "startDate": "2009-09-11 00:00:00", "endDate": "2010-07-14 00:00:00", "lat": 64.279722222222006, "lon": -141.31333333333001, "name": " Fortymile River At Taylor Hwy 24 NE", "Notes": " USGS GOES\/HADS river stage" }, "geometry": { "type": "Point", "coordinates": [ -141.313333333330007, 64.279722222222006 ] } },
{ "type": "Feature", "properties": { "NWSID": " FMRA2 ", "startDate": "2010-07-14 00:00:00", "endDate": "2012-06-20 00:00:00", "lat": 64.309166666666997, "lon": -141.40222222221999, "name": " Fortymile River At Taylor Hwy 24 NE", "Notes": " USGS GOES\/HADS river stage" }, "geometry": { "type": "Point", "coordinates": [ -141.40222222221999, 64.309166666666997 ] } },
{ "type": "Feature", "properties": { "NWSID": " FMRA2 ", "startDate": "2012-06-20 00:00:00", "endDate": "            ", "lat": 64.309166666666997, "lon": -141.40222222221999, "name": " Fortymile River At Taylor Hwy 24 NE", "Notes": " USGS GOES\/HADS river stage" }, "geometry": { "type": "Point", "coordinates": [ -141.40222222221999, 64.309166666666997 ] } },
{ "type": "Feature", "properties": { "NWSID": " FMSA2 ", "startDate": "2000-09-26 00:00:00", "endDate": "2008-02-22 00:00:00", "lat": 64.0578, "lon": -141.7672, "name": " South Fork Of Forty Mile River At Taylor Hwy       5 ESE", "Notes": " " }, "geometry": { "type": "Point", "coordinates": [ -141.7672, 64.0578 ] } },
{ "type": "Feature", "properties": { "NWSID": " FMSA2 ", "startDate": "2008-02-22 00:00:00", "endDate": "            ", "lat": 64.057777777778, "lon": -141.76722222222, "name": " South Fork 40 Mile At Taylor Hwy 5 ESE", "Notes": " " }, "geometry": { "type": "Point", "coordinates": [ -141.767222222219999, 64.057777777778 ] } },
{ "type": "Feature", "properties": { "NWSID": " FMWA2 ", "startDate": "1989-09-01 00:00:00", "endDate": "2008-02-22 00:00:00", "lat": 63.8894, "lon": -142.2322, "name": " West Fork Of Fortymile River At Taylor Hwy         16 SW", "Notes": " " }, "geometry": { "type": "Point", "coordinates": [ -142.2322, 63.8894 ] } },
{ "type": "Feature", "properties": { "NWSID": " FMWA2 ", "startDate": "2008-02-22 00:00:00", "endDate": "            ", "lat": 63.889444444444003, "lon": -142.23222222222, "name": " West Fork Of The Denn. Fk Of The 40mile @ Taylor 16 SW", "Notes": " " }, "geometry": { "type": "Point", "coordinates": [ -142.232222222220003, 63.889444444444003 ] } },
{ "type": "Feature", "properties": { "NWSID": " GAKA2 ", "startDate": "1990-10-01 00:00:00", "endDate": "1999-12-31 00:00:00", "lat": 62.18, "lon": -145.18, "name": " Gakona", "Notes": " Wire weight @ Glenn Hwy Bridge" }, "geometry": { "type": "Point", "coordinates": [ -145.18, 62.18 ] } },
{ "type": "Feature", "properties": { "NWSID": " GAKA2 ", "startDate": "1948-08-08 00:00:00", "endDate": "2008-02-22 00:00:00", "lat": 62.3083, "lon": -145.1667, "name": " Tok Cutoff Brg 1 E", "Notes": " Wire weight @ Glenn Hwy Bridge" }, "geometry": { "type": "Point", "coordinates": [ -145.1667, 62.3083 ] } },
{ "type": "Feature", "properties": { "NWSID": " GAKA2 ", "startDate": "2008-02-22 00:00:00", "endDate": "2010-08-25 00:00:00", "lat": 62.308333333333003, "lon": -145.16666666667001, "name": " Gakona River Nr Gakona 1 E", "Notes": " Wire weight @ Glenn Hwy Bridge" }, "geometry": { "type": "Point", "coordinates": [ -145.166666666670011, 62.308333333333003 ] } },
{ "type": "Feature", "properties": { "NWSID": " GAKA2 ", "startDate": "2010-08-25 00:00:00", "endDate": "2011-05-24 00:00:00", "lat": 62.301388888889001, "lon": -145.30694444444001, "name": " Gakona River Nr Gakona 1 E", "Notes": " Wire weight @ Glenn Hwy Bridge" }, "geometry": { "type": "Point", "coordinates": [ -145.306944444440006, 62.301388888889001 ] } },
{ "type": "Feature", "properties": { "NWSID": " GAKA2 ", "startDate": "2011-05-24 00:00:00", "endDate": "2011-07-22 00:00:00", "lat": 62.301388888889001, "lon": -145.37277777777999, "name": " Gakona River Nr Gakona 1 E", "Notes": " Wire weight @ Glenn Hwy Bridge" }, "geometry": { "type": "Point", "coordinates": [ -145.372777777779987, 62.301388888889001 ] } },
{ "type": "Feature", "properties": { "NWSID": " GAKA2 ", "startDate": "2011-07-22 00:00:00", "endDate": "            ", "lat": 62.30142, "lon": -145.3073, "name": " Gakona River Nr Gakona 1 E", "Notes": " Wire weight @ Glenn Hwy Bridge" }, "geometry": { "type": "Point", "coordinates": [ -145.3073, 62.30142 ] } },
{ "type": "Feature", "properties": { "NWSID": " GBDA2 ", "startDate": "2000-07-29 00:00:00", "endDate": "2008-02-22 00:00:00", "lat": 64.4506, "lon": -144.9422, "name": " Near Big Delta 36 NE", "Notes": " USGS GOES\/HADS river stage" }, "geometry": { "type": "Point", "coordinates": [ -144.9422, 64.4506 ] } },
{ "type": "Feature", "properties": { "NWSID": " GBDA2 ", "startDate": "2008-02-22 00:00:00", "endDate": "            ", "lat": 64.450555555555994, "lon": -144.94222222222001, "name": " Goodpaster River Nr Big Delta 36 NE", "Notes": " USGS GOES\/HADS river stage" }, "geometry": { "type": "Point", "coordinates": [ -144.942222222220011, 64.450555555555994 ] } },
{ "type": "Feature", "properties": { "NWSID": " GCGA2 ", "startDate": "1997-09-26 00:00:00", "endDate": "2008-02-22 00:00:00", "lat": 60.9625, "lon": -149.1317, "name": " Girdwood 1 SE", "Notes": " WIRE WEIGHT GAGE" }, "geometry": { "type": "Point", "coordinates": [ -149.1317, 60.9625 ] } },
{ "type": "Feature", "properties": { "NWSID": " GCGA2 ", "startDate": "2008-02-22 00:00:00", "endDate": "2011-06-27 00:00:00", "lat": 60.9625, "lon": -149.13166666666999, "name": " Glacier Creek At Girdwood 1 SE", "Notes": " WIRE WEIGHT GAGE" }, "geometry": { "type": "Point", "coordinates": [ -149.131666666669986, 60.9625 ] } },
{ "type": "Feature", "properties": { "NWSID": " GCGA2 ", "startDate": "2011-06-27 00:00:00", "endDate": "            ", "lat": 60.961666666667, "lon": -149.13138888889, "name": " Glacier Creek At Girdwood 1 SE", "Notes": " WIRE WEIGHT GAGE" }, "geometry": { "type": "Point", "coordinates": [ -149.131388888890001, 60.961666666667 ] } },
{ "type": "Feature", "properties": { "NWSID": " GCOA2 ", "startDate": "2011-07-14 00:00:00", "endDate": "2012-06-20 00:00:00", "lat": 60.533333333332997, "lon": -145.37861111110999, "name": " Glacier River Tributary Near Cordova", "Notes": " USGS automated stream gage" }, "geometry": { "type": "Point", "coordinates": [ -145.37861111110999, 60.533333333332997 ] } },
{ "type": "Feature", "properties": { "NWSID": " GCOA2 ", "startDate": "2012-06-20 00:00:00", "endDate": "2016-09-10 00:00:00", "lat": 60.533333333332997, "lon": -145.37861111110999, "name": " Glacier River Tributary Near Cordova", "Notes": " USGS automated stream gage" }, "geometry": { "type": "Point", "coordinates": [ -145.37861111110999, 60.533333333332997 ] } },
{ "type": "Feature", "properties": { "NWSID": " GCOA2 ", "startDate": "2016-09-10 00:00:00", "endDate": "            ", "lat": 60.5327973, "lon": -145.3806148, "name": " Glacier River Tributary Near Cordova", "Notes": " USGS automated stream gage" }, "geometry": { "type": "Point", "coordinates": [ -145.380614799999989, 60.5327973 ] } },
{ "type": "Feature", "properties": { "NWSID": " GCSA2 ", "startDate": "1949-08-01 00:00:00", "endDate": "2008-02-22 00:00:00", "lat": 62.7678, "lon": -149.6911, "name": " Gold Creek Rr Stn 26 NNE", "Notes": " USGS GOES\/HADS river stage" }, "geometry": { "type": "Point", "coordinates": [ -149.6911, 62.7678 ] } },
{ "type": "Feature", "properties": { "NWSID": " GCSA2 ", "startDate": "2008-02-22 00:00:00", "endDate": "            ", "lat": 62.767777777778001, "lon": -149.69111111110999, "name": " Susitna River At Gold Creek 26 NNE", "Notes": " USGS GOES\/HADS river stage" }, "geometry": { "type": "Point", "coordinates": [ -149.69111111110999, 62.767777777778001 ] } },
{ "type": "Feature", "properties": { "NWSID": " GICQ9 ", "startDate": "2002-01-29 00:00:00", "endDate": "2008-02-22 00:00:00", "lat": 61.1967, "lon": -136.9872, "name": " Giltana Creek Nr Mouth 35 NNE", "Notes": " " }, "geometry": { "type": "Point", "coordinates": [ -136.9872, 61.1967 ] } },
{ "type": "Feature", "properties": { "NWSID": " GICQ9 ", "startDate": "2008-02-22 00:00:00", "endDate": "            ", "lat": 61.196666666666999, "lon": -136.98722222222, "name": " Giltana Creek Nr Mouth 35 NNE", "Notes": " " }, "geometry": { "type": "Point", "coordinates": [ -136.987222222219998, 61.196666666666999 ] } },
{ "type": "Feature", "properties": { "NWSID": " GLSA2 ", "startDate": "2010-09-24 00:00:00", "endDate": "2011-06-27 00:00:00", "lat": 65.575833333332994, "lon": -148.38861111111001, "name": " Goldstream Creek Near Livengood", "Notes": " USGS GOES\/HADS river stage" }, "geometry": { "type": "Point", "coordinates": [ -148.388611111110009, 65.575833333332994 ] } },
{ "type": "Feature", "properties": { "NWSID": " GLSA2 ", "startDate": "2011-06-27 00:00:00", "endDate": "2012-06-20 00:00:00", "lat": 65.575833333332994, "lon": -148.38861111111001, "name": " Goldstream Creek Near Livengood", "Notes": " USGS GOES\/HADS river stage" }, "geometry": { "type": "Point", "coordinates": [ -148.388611111110009, 65.575833333332994 ] } },
{ "type": "Feature", "properties": { "NWSID": " GLSA2 ", "startDate": "2012-06-20 00:00:00", "endDate": "            ", "lat": 65.575833333332994, "lon": -148.38861111111001, "name": " Goldstream Creek Near Livengood", "Notes": " USGS GOES\/HADS river stage" }, "geometry": { "type": "Point", "coordinates": [ -148.388611111110009, 65.575833333332994 ] } },
{ "type": "Feature", "properties": { "NWSID": " GOVA2 ", "startDate": "2010-01-26 00:00:00", "endDate": "2010-05-11 00:00:00", "lat": 55.347222222222001, "lon": -131.69694444443999, "name": " Government Creek Near Ketchikan", "Notes": " USGS GOES\/HADS river stage" }, "geometry": { "type": "Point", "coordinates": [ -131.696944444439993, 55.347222222222001 ] } },
{ "type": "Feature", "properties": { "NWSID": " GOVA2 ", "startDate": "2010-05-11 00:00:00", "endDate": "2012-08-14 00:00:00", "lat": 55.347222222222001, "lon": -131.69694444443999, "name": " Government Creek Near Ketchikan", "Notes": " USGS GOES\/HADS river stage" }, "geometry": { "type": "Point", "coordinates": [ -131.696944444439993, 55.347222222222001 ] } },
{ "type": "Feature", "properties": { "NWSID": " GOVA2 ", "startDate": "2012-08-14 00:00:00", "endDate": "            ", "lat": 55.342777777777997, "lon": -131.69888888889, "name": " Government Creek Near Ketchikan", "Notes": " USGS GOES\/HADS river stage" }, "geometry": { "type": "Point", "coordinates": [ -131.698888888889996, 55.342777777777997 ] } },
{ "type": "Feature", "properties": { "NWSID": " GPOA2 ", "startDate": "2003-08-05 00:00:00", "endDate": "2008-02-22 00:00:00", "lat": 63.6917, "lon": -145.6167, "name": " Paxson Lake Outlet", "Notes": " " }, "geometry": { "type": "Point", "coordinates": [ -145.6167, 63.6917 ] } },
{ "type": "Feature", "properties": { "NWSID": " GPOA2 ", "startDate": "2008-02-22 00:00:00", "endDate": "            ", "lat": 62.858333333333, "lon": -145.61666666667, "name": " Paxson Lake Outlet", "Notes": " " }, "geometry": { "type": "Point", "coordinates": [ -145.61666666667, 62.858333333333 ] } },
{ "type": "Feature", "properties": { "NWSID": " GROA2 ", "startDate": "1997-06-03 00:00:00", "endDate": "2008-02-22 00:00:00", "lat": 60.2047, "lon": -149.3697, "name": " Grouse Lake Outl 7 NNE", "Notes": " USGS GOES\/HADS & NWS PRECIP" }, "geometry": { "type": "Point", "coordinates": [ -149.3697, 60.2047 ] } },
{ "type": "Feature", "properties": { "NWSID": " GROA2 ", "startDate": "2008-02-22 00:00:00", "endDate": "            ", "lat": 60.198333333332997, "lon": -149.37333333333001, "name": " Grouse Creek Nr Seward 7 NNE", "Notes": " USGS GOES\/HADS & NWS PRECIP" }, "geometry": { "type": "Point", "coordinates": [ -149.37333333333001, 60.198333333332997 ] } },
{ "type": "Feature", "properties": { "NWSID": " GRSA2 ", "startDate": "1972-10-01 00:00:00", "endDate": "2008-02-22 00:00:00", "lat": 62.5208, "lon": -145.5308, "name": " At Sourdough 1 SW", "Notes": " USGS GOES\/HADS River Stage" }, "geometry": { "type": "Point", "coordinates": [ -145.5308, 62.5208 ] } },
{ "type": "Feature", "properties": { "NWSID": " GRSA2 ", "startDate": "2008-02-22 00:00:00", "endDate": "            ", "lat": 62.520833333333002, "lon": -145.53083333333001, "name": " Gulkana River At Sourdough 1 SW", "Notes": " USGS GOES\/HADS River Stage" }, "geometry": { "type": "Point", "coordinates": [ -145.530833333330008, 62.520833333333002 ] } },
{ "type": "Feature", "properties": { "NWSID": " GULA2 ", "startDate": "1990-10-01 00:00:00", "endDate": "1999-12-31 00:00:00", "lat": 62.16, "lon": -145.23, "name": " Gulkana", "Notes": " Wire weight on Glenn Hwy Brdg" }, "geometry": { "type": "Point", "coordinates": [ -145.23, 62.16 ] } },
{ "type": "Feature", "properties": { "NWSID": " GULA2 ", "startDate": "1969-07-01 00:00:00", "endDate": "2008-02-22 00:00:00", "lat": 62.2689, "lon": -145.3806, "name": " Richardson Hwy Brg 98 N", "Notes": " Wire weight on Glenn Hwy Brdg" }, "geometry": { "type": "Point", "coordinates": [ -145.3806, 62.2689 ] } },
{ "type": "Feature", "properties": { "NWSID": " GULA2 ", "startDate": "2008-02-22 00:00:00", "endDate": "            ", "lat": 62.268888888889002, "lon": -145.38055555555999, "name": " Gulkana River Nr Gulkana 98 N", "Notes": " Wire weight on Glenn Hwy Brdg" }, "geometry": { "type": "Point", "coordinates": [ -145.380555555559994, 62.268888888889002 ] } },
{ "type": "Feature", "properties": { "NWSID": " GYRA2 ", "startDate": "1990-05-01 00:00:00", "endDate": "1999-12-31 00:00:00", "lat": 64.44, "lon": -156.56, "name": " Galena Yukon River", "Notes": " Vertical staff gage." }, "geometry": { "type": "Point", "coordinates": [ -156.56, 64.44 ] } },
{ "type": "Feature", "properties": { "NWSID": " GYRA2 ", "startDate": "1975-09-01 00:00:00", "endDate": "2008-02-22 00:00:00", "lat": 64.7367, "lon": -156.9344, "name": " Galena 198 N", "Notes": " Vertical staff gage." }, "geometry": { "type": "Point", "coordinates": [ -156.9344, 64.7367 ] } },
{ "type": "Feature", "properties": { "NWSID": " GYRA2 ", "startDate": "2008-02-22 00:00:00", "endDate": "2011-06-27 00:00:00", "lat": 64.7361111111111, "lon": -156.900833333333, "name": " Yukon River At Galena 198 N", "Notes": " Vertical staff gage." }, "geometry": { "type": "Point", "coordinates": [ -156.900833333332997, 64.7361111111111 ] } },
{ "type": "Feature", "properties": { "NWSID": " GYRA2 ", "startDate": "2011-06-27 00:00:00", "endDate": "2013-06-13 00:00:00", "lat": 64.736111, "lon": -156.900833, "name": " Yukon River At Galena 198 N", "Notes": " Vertical staff gage." }, "geometry": { "type": "Point", "coordinates": [ -156.900833, 64.736111 ] } },
{ "type": "Feature", "properties": { "NWSID": " GYRA2 ", "startDate": "2013-06-13 00:00:00", "endDate": "            ", "lat": 64.736666666666693, "lon": -156.93444444444401, "name": " Yukon River At Galena 198 N", "Notes": " Vertical staff gage." }, "geometry": { "type": "Point", "coordinates": [ -156.934444444444011, 64.736666666666693 ] } },
{ "type": "Feature", "properties": { "NWSID": " HBRA2 ", "startDate": "2018-06-10 00:00:00", "endDate": "            ", "lat": 58.523888888888898, "lon": -134.795, "name": " Herbert River", "Notes": " " }, "geometry": { "type": "Point", "coordinates": [ -134.795, 58.523888888888898 ] } },
{ "type": "Feature", "properties": { "NWSID": " HCCA2 ", "startDate": "2016-09-20 00:00:00", "endDate": "            ", "lat": 55.9086, "lon": -132.9308, "name": " Hatchery Creek Near Coffman Cove", "Notes": " " }, "geometry": { "type": "Point", "coordinates": [ -132.9308, 55.9086 ] } },
{ "type": "Feature", "properties": { "NWSID": " HNRA2 ", "startDate": "1988-06-29 00:00:00", "endDate": "1997-02-10 00:00:00", "lat": 63.51, "lon": -148.58, "name": " Healy", "Notes": null }, "geometry": { "type": "Point", "coordinates": [ -148.58, 63.51 ] } },
{ "type": "Feature", "properties": { "NWSID": " HNRA2 ", "startDate": "1997-02-10 00:00:00", "endDate": "1999-12-31 00:00:00", "lat": 63.51, "lon": -148.57, "name": " Healy", "Notes": null }, "geometry": { "type": "Point", "coordinates": [ -148.57, 63.51 ] } },
{ "type": "Feature", "properties": { "NWSID": " HNRA2 ", "startDate": "1969-06-01 00:00:00", "endDate": "2008-02-22 00:00:00", "lat": 63.8453, "lon": -148.9436, "name": " Usibelli Rd Brg 1 E", "Notes": null }, "geometry": { "type": "Point", "coordinates": [ -148.9436, 63.8453 ] } },
{ "type": "Feature", "properties": { "NWSID": " HNRA2 ", "startDate": "2008-02-22 00:00:00", "endDate": "            ", "lat": 63.854166666666998, "lon": -148.95555555556001, "name": " Nenana River At Healy 1 E", "Notes": null }, "geometry": { "type": "Point", "coordinates": [ -148.955555555560011, 63.854166666666998 ] } },
{ "type": "Feature", "properties": { "NWSID": " HULA2 ", "startDate": "2011-06-07 00:00:00", "endDate": "2011-06-27 00:00:00", "lat": 69.711388888889005, "lon": -144.19, "name": " Hulahula River Near Kaktovik", "Notes": " USGS GOES\/HADS" }, "geometry": { "type": "Point", "coordinates": [ -144.19, 69.711388888889005 ] } },
{ "type": "Feature", "properties": { "NWSID": " HULA2 ", "startDate": "2011-06-27 00:00:00", "endDate": "2012-06-20 00:00:00", "lat": 69.711388888889005, "lon": -144.19, "name": " Hulahula River Near Kaktovik", "Notes": " USGS GOES\/HADS" }, "geometry": { "type": "Point", "coordinates": [ -144.19, 69.711388888889005 ] } },
{ "type": "Feature", "properties": { "NWSID": " HULA2 ", "startDate": "2012-06-20 00:00:00", "endDate": "            ", "lat": 69.711388888889005, "lon": -144.19, "name": " Hulahula River Near Kaktovik", "Notes": " USGS GOES\/HADS" }, "geometry": { "type": "Point", "coordinates": [ -144.19, 69.711388888889005 ] } },
{ "type": "Feature", "properties": { "NWSID": " ICDA2 ", "startDate": "2014-08-06 00:00:00", "endDate": "            ", "lat": 63.6088, "lon": -149.5848, "name": " Igloo Creek At Denali Park Road", "Notes": null }, "geometry": { "type": "Point", "coordinates": [ -149.5848, 63.6088 ] } },
{ "type": "Feature", "properties": { "NWSID": " IKPA2 ", "startDate": "2003-06-27 00:00:00", "endDate": "2008-02-22 00:00:00", "lat": 69.7667, "lon": -154.6692, "name": " Ikpikpuk River Below Fry Creek", "Notes": " USGS GOES\/HADS river stage" }, "geometry": { "type": "Point", "coordinates": [ -154.6692, 69.7667 ] } },
{ "type": "Feature", "properties": { "NWSID": " IKPA2 ", "startDate": "2008-02-22 00:00:00", "endDate": "2009-07-07 00:00:00", "lat": 69.766944444443993, "lon": -154.66138888889, "name": " Ikpikpuk River Near Barrow", "Notes": " USGS GOES\/HADS river stage" }, "geometry": { "type": "Point", "coordinates": [ -154.661388888890002, 69.766944444443993 ] } },
{ "type": "Feature", "properties": { "NWSID": " IKPA2 ", "startDate": "2009-07-07 00:00:00", "endDate": "2012-06-20 00:00:00", "lat": 69.766944444443993, "lon": -154.66138888889, "name": " Ikpikpuk River Below Fry Creek Near Alaktak", "Notes": " USGS GOES\/HADS river stage" }, "geometry": { "type": "Point", "coordinates": [ -154.661388888890002, 69.766944444443993 ] } },
{ "type": "Feature", "properties": { "NWSID": " IKPA2 ", "startDate": "2012-06-20 00:00:00", "endDate": "            ", "lat": 69.766944444443993, "lon": -154.66138888889, "name": " Ikpikpuk River Below Fry Creek Near Alaktak", "Notes": " USGS GOES\/HADS river stage" }, "geometry": { "type": "Point", "coordinates": [ -154.661388888890002, 69.766944444443993 ] } },
{ "type": "Feature", "properties": { "NWSID": " ILRA2 ", "startDate": "1996-08-07 00:00:00", "endDate": "2008-02-22 00:00:00", "lat": 59.7586, "lon": -153.8447, "name": " Pedro Bay 9 ESE", "Notes": " USGS GOES\/HADS river stage" }, "geometry": { "type": "Point", "coordinates": [ -153.8447, 59.7586 ] } },
{ "type": "Feature", "properties": { "NWSID": " ILRA2 ", "startDate": "2008-02-22 00:00:00", "endDate": "            ", "lat": 59.758611111111001, "lon": -153.84472222222001, "name": " Iliamna River Near Pedro Bay 9 ESE", "Notes": " USGS GOES\/HADS river stage" }, "geometry": { "type": "Point", "coordinates": [ -153.844722222220014, 59.758611111111001 ] } },
{ "type": "Feature", "properties": { "NWSID": " IRVA2 ", "startDate": "2002-04-30 00:00:00", "endDate": "2008-02-22 00:00:00", "lat": 57.0533, "lon": -135.3144, "name": " Indian River At Sitka 1 E", "Notes": " Indian River Near Sitka" }, "geometry": { "type": "Point", "coordinates": [ -135.3144, 57.0533 ] } },
{ "type": "Feature", "properties": { "NWSID": " IRVA2 ", "startDate": "2008-02-22 00:00:00", "endDate": "2014-07-14 00:00:00", "lat": 57.053333333333001, "lon": -135.31444444444, "name": " Indian River At Sitka 1 E", "Notes": " Indian River Near Sitka" }, "geometry": { "type": "Point", "coordinates": [ -135.314444444439999, 57.053333333333001 ] } },
{ "type": "Feature", "properties": { "NWSID": " IRVA2 ", "startDate": "2014-07-14 00:00:00", "endDate": "2015-01-14 00:00:00", "lat": 57.052777777777997, "lon": -135.31777777778001, "name": " Indian River At Sitka 1 E", "Notes": " Indian River Near Sitka" }, "geometry": { "type": "Point", "coordinates": [ -135.317777777780009, 57.052777777777997 ] } },
{ "type": "Feature", "properties": { "NWSID": " IRVA2 ", "startDate": "2015-01-14 00:00:00", "endDate": "2017-12-01 00:00:00", "lat": 57.052777777777997, "lon": -135.32833333332999, "name": " Indian River At Sitka 1 E", "Notes": " Indian River Near Sitka" }, "geometry": { "type": "Point", "coordinates": [ -135.328333333329994, 57.052777777777997 ] } },
{ "type": "Feature", "properties": { "NWSID": " IRVA2 ", "startDate": "2017-12-01 00:00:00", "endDate": "            ", "lat": 57.053333333333299, "lon": -135.314444444445, "name": " Indian River At Sitka 1 E", "Notes": " Indian River Near Sitka" }, "geometry": { "type": "Point", "coordinates": [ -135.314444444445002, 57.053333333333299 ] } },
{ "type": "Feature", "properties": { "NWSID": " ISKQ2 ", "startDate": "2009-01-06 00:00:00", "endDate": "2010-01-27 00:00:00", "lat": 56.738888888889001, "lon": -131.67361111111001, "name": " Iskut River Below Johnson River", "Notes": " " }, "geometry": { "type": "Point", "coordinates": [ -131.673611111110006, 56.738888888889001 ] } },
{ "type": "Feature", "properties": { "NWSID": " ISKQ2 ", "startDate": "2010-01-27 00:00:00", "endDate": "2010-05-11 00:00:00", "lat": 56.738888888889001, "lon": -131.67361111111001, "name": " Iskut River Below Johnson River", "Notes": " " }, "geometry": { "type": "Point", "coordinates": [ -131.673611111110006, 56.738888888889001 ] } },
{ "type": "Feature", "properties": { "NWSID": " ISKQ2 ", "startDate": "2010-05-11 00:00:00", "endDate": "2010-07-06 00:00:00", "lat": 56.738888888889001, "lon": -131.67361111111001, "name": " Iskut River Below Johnson River", "Notes": " " }, "geometry": { "type": "Point", "coordinates": [ -131.673611111110006, 56.738888888889001 ] } },
{ "type": "Feature", "properties": { "NWSID": " ISKQ2 ", "startDate": "2010-07-06 00:00:00", "endDate": "2011-01-06 00:00:00", "lat": 56.738888888889001, "lon": -131.73666666667, "name": " Iskut River Below Johnson River", "Notes": " " }, "geometry": { "type": "Point", "coordinates": [ -131.736666666670004, 56.738888888889001 ] } },
{ "type": "Feature", "properties": { "NWSID": " ISKQ2 ", "startDate": "2011-01-06 00:00:00", "endDate": "2011-06-27 00:00:00", "lat": 56.738888888889001, "lon": -131.73666666667, "name": " Iskut River Below Johnson River", "Notes": " " }, "geometry": { "type": "Point", "coordinates": [ -131.736666666670004, 56.738888888889001 ] } },
{ "type": "Feature", "properties": { "NWSID": " ISKQ2 ", "startDate": "2011-06-27 00:00:00", "endDate": "            ", "lat": 56.738888888889001, "lon": -131.6736111111, "name": " Iskut River Below Johnson River", "Notes": " " }, "geometry": { "type": "Point", "coordinates": [ -131.673611111100001, 56.738888888889001 ] } },
{ "type": "Feature", "properties": { "NWSID": " ITAA2 ", "startDate": "2018-10-09 00:00:00", "endDate": "            ", "lat": 59.302202, "lon": -139.04569, "name": " Italio River Near Yakutat", "Notes": " " }, "geometry": { "type": "Point", "coordinates": [ -139.04569, 59.302202 ] } },
{ "type": "Feature", "properties": { "NWSID": " JDYA2 ", "startDate": "2006-02-01 00:00:00", "endDate": "2008-02-22 00:00:00", "lat": 70.220555555555606, "lon": -151.83472222222201, "name": " JUDY CREEK NEAR NUIQSUT", "Notes": " " }, "geometry": { "type": "Point", "coordinates": [ -151.834722222222013, 70.220555555555606 ] } },
{ "type": "Feature", "properties": { "NWSID": " JDYA2 ", "startDate": "2008-02-22 00:00:00", "endDate": "            ", "lat": 70.220555555556004, "lon": -151.83472222221999, "name": " Judy Creek Near Nuiqsut", "Notes": " " }, "geometry": { "type": "Point", "coordinates": [ -151.834722222219995, 70.220555555556004 ] } },
{ "type": "Feature", "properties": { "NWSID": " JRDA2 ", "startDate": "2011-10-26 00:00:00", "endDate": "2012-11-09 00:00:00", "lat": 58.363888888889001, "lon": -134.57972222222, "name": " Jordan Creek Near Juneau", "Notes": " " }, "geometry": { "type": "Point", "coordinates": [ -134.579722222219999, 58.363888888889001 ] } },
{ "type": "Feature", "properties": { "NWSID": " JRDA2 ", "startDate": "2012-11-09 00:00:00", "endDate": "            ", "lat": 58.363888888889001, "lon": -134.57972222222, "name": " Jordan Creek Near Juneau", "Notes": " " }, "geometry": { "type": "Point", "coordinates": [ -134.579722222219999, 58.363888888889001 ] } },
{ "type": "Feature", "properties": { "NWSID": " KBJA2 ", "startDate": "2010-11-03 00:00:00", "endDate": "2011-06-27 00:00:00", "lat": 66.908055555556004, "lon": -151.68083333333001, "name": " Koyukuk River Below John River", "Notes": " USFWS automated stream gage" }, "geometry": { "type": "Point", "coordinates": [ -151.680833333330014, 66.908055555556004 ] } },
{ "type": "Feature", "properties": { "NWSID": " KBJA2 ", "startDate": "2011-06-27 00:00:00", "endDate": "            ", "lat": 66.908055555556004, "lon": -151.68083333333001, "name": " Koyukuk River Below John River", "Notes": " USFWS automated stream gage" }, "geometry": { "type": "Point", "coordinates": [ -151.680833333330014, 66.908055555556004 ] } },
{ "type": "Feature", "properties": { "NWSID": " KDKA2 ", "startDate": "1964-02-01 00:00:00", "endDate": "2008-02-22 00:00:00", "lat": 57.6947, "lon": -153.1617, "name": " Terror Lake River At Mouth Nr Kodiak 25 SW", "Notes": " USGS GOES\/HADS river stage" }, "geometry": { "type": "Point", "coordinates": [ -153.1617, 57.6947 ] } },
{ "type": "Feature", "properties": { "NWSID": " KDKA2 ", "startDate": "2008-02-22 00:00:00", "endDate": "2016-08-03 00:00:00", "lat": 57.694722222221998, "lon": -153.16166666666999, "name": " Terror River At Mouth Nr Kodiak 25 SW", "Notes": " USGS GOES\/HADS river stage" }, "geometry": { "type": "Point", "coordinates": [ -153.161666666669987, 57.694722222221998 ] } },
{ "type": "Feature", "properties": { "NWSID": " KDKA2 ", "startDate": "2016-08-03 00:00:00", "endDate": "            ", "lat": 57.694722222221998, "lon": -153.26722222222, "name": " Terror River At Mouth Nr Kodiak 25 SW", "Notes": " USGS GOES\/HADS river stage" }, "geometry": { "type": "Point", "coordinates": [ -153.267222222219999, 57.694722222221998 ] } },
{ "type": "Feature", "properties": { "NWSID": " KEYA2 ", "startDate": "1979-08-16 00:00:00", "endDate": "1993-08-15 00:00:00", "lat": 60.28, "lon": -150.35, "name": " Kenai Keys River", "Notes": " Slope profile" }, "geometry": { "type": "Point", "coordinates": [ -150.35, 60.28 ] } },
{ "type": "Feature", "properties": { "NWSID": " KEYA2 ", "startDate": "1993-08-15 00:00:00", "endDate": "1999-12-31 00:00:00", "lat": 60.29, "lon": -150.37, "name": " Kenai Keys River", "Notes": " Slope profile" }, "geometry": { "type": "Point", "coordinates": [ -150.37, 60.29 ] } },
{ "type": "Feature", "properties": { "NWSID": " KEYA2 ", "startDate": "1979-08-17 00:00:00", "endDate": "2008-02-22 00:00:00", "lat": 60.5278, "lon": -150.6, "name": " Kenai Keys 5 E", "Notes": " Slope profile" }, "geometry": { "type": "Point", "coordinates": [ -150.6, 60.5278 ] } },
{ "type": "Feature", "properties": { "NWSID": " KEYA2 ", "startDate": "2008-02-22 00:00:00", "endDate": "2009-06-18 00:00:00", "lat": 60.527777777777999, "lon": -150.6, "name": " Kenai River At Kenai Keys 5 E", "Notes": " Slope profile" }, "geometry": { "type": "Point", "coordinates": [ -150.6, 60.527777777777999 ] } },
{ "type": "Feature", "properties": { "NWSID": " KEYA2 ", "startDate": "2009-06-18 00:00:00", "endDate": "2012-01-23 00:00:00", "lat": 60.481388888889001, "lon": -150.62611111110999, "name": " Kenai River At Kenai Keys 5 E", "Notes": " Slope profile" }, "geometry": { "type": "Point", "coordinates": [ -150.626111111109992, 60.481388888889001 ] } },
{ "type": "Feature", "properties": { "NWSID": " KEYA2 ", "startDate": "2012-01-23 00:00:00", "endDate": "            ", "lat": 60.481388888889001, "lon": -150.62611111110999, "name": " Kenai River At Kenai Keys E", "Notes": " Slope profile" }, "geometry": { "type": "Point", "coordinates": [ -150.626111111109992, 60.481388888889001 ] } },
{ "type": "Feature", "properties": { "NWSID": " KIAA2 ", "startDate": "1976-09-01 00:00:00", "endDate": "2008-02-22 00:00:00", "lat": 66.9736, "lon": -160.1308, "name": " Kiana 10 E", "Notes": " USGS GOES\/HADS river stage" }, "geometry": { "type": "Point", "coordinates": [ -160.1308, 66.9736 ] } },
{ "type": "Feature", "properties": { "NWSID": " KIAA2 ", "startDate": "2008-02-22 00:00:00", "endDate": "            ", "lat": 66.973611111110998, "lon": -160.13083333333, "name": " Kobuk River Nr Kiana 10 E", "Notes": " USGS GOES\/HADS river stage" }, "geometry": { "type": "Point", "coordinates": [ -160.130833333330003, 66.973611111110998 ] } },
{ "type": "Feature", "properties": { "NWSID": " KLCA2 ", "startDate": "1996-05-01 00:00:00", "endDate": "2008-02-22 00:00:00", "lat": 62.0475, "lon": -156.2117, "name": " Lisky's Crossing 39 NE", "Notes": " USGS\/GOES water-stage recorder" }, "geometry": { "type": "Point", "coordinates": [ -156.2117, 62.0475 ] } },
{ "type": "Feature", "properties": { "NWSID": " KLCA2 ", "startDate": "2008-02-22 00:00:00", "endDate": "            ", "lat": 62.051944444443997, "lon": -156.21055555556001, "name": " Kuskokwim River At Lisky's Crossing 39 NE", "Notes": " USGS\/GOES water-stage recorder" }, "geometry": { "type": "Point", "coordinates": [ -156.210555555560006, 62.051944444443997 ] } },
{ "type": "Feature", "properties": { "NWSID": " KLNQ9 ", "startDate": "1967-05-01 00:00:00", "endDate": "2008-02-22 00:00:00", "lat": 64.0428, "lon": -139.4078, "name": " Klondike River Abv Bonanza Creek 1 SSE", "Notes": " KLONDIKE R ABV BONANZA CR" }, "geometry": { "type": "Point", "coordinates": [ -139.4078, 64.0428 ] } },
{ "type": "Feature", "properties": { "NWSID": " KLNQ9 ", "startDate": "2008-02-22 00:00:00", "endDate": "            ", "lat": 64.042777777777999, "lon": -139.40777777778001, "name": " Klondike River Abv Bonanza Creek 1 SSE", "Notes": " KLONDIKE R ABV BONANZA CR" }, "geometry": { "type": "Point", "coordinates": [ -139.407777777780012, 64.042777777777999 ] } },
{ "type": "Feature", "properties": { "NWSID": " KLUA2 ", "startDate": "2005-08-18 00:00:00", "endDate": "2008-02-22 00:00:00", "lat": 61.9528, "lon": -145.3064, "name": " COPPER CENTER", "Notes": " " }, "geometry": { "type": "Point", "coordinates": [ -145.3064, 61.9528 ] } },
{ "type": "Feature", "properties": { "NWSID": " KLUA2 ", "startDate": "2008-02-22 00:00:00", "endDate": "2008-10-02 00:00:00", "lat": 61.952777777778003, "lon": -145.30638888889001, "name": " Klutina River At Copper Center 6 SE", "Notes": " " }, "geometry": { "type": "Point", "coordinates": [ -145.306388888890012, 61.952777777778003 ] } },
{ "type": "Feature", "properties": { "NWSID": " KLUA2 ", "startDate": "2008-10-02 00:00:00", "endDate": "            ", "lat": 61.952222222221998, "lon": -145.30694444444001, "name": " Klutina River At Copper Center 6 SE", "Notes": " " }, "geometry": { "type": "Point", "coordinates": [ -145.306944444440006, 61.952222222221998 ] } },
{ "type": "Feature", "properties": { "NWSID": " KNKA2 ", "startDate": "1959-10-01 00:00:00", "endDate": "2008-02-22 00:00:00", "lat": 61.505, "lon": -149.030556, "name": " Knik River", "Notes": " USGS phone modem river stage" }, "geometry": { "type": "Point", "coordinates": [ -149.030556, 61.505 ] } },
{ "type": "Feature", "properties": { "NWSID": " KNKA2 ", "startDate": "2008-02-22 00:00:00", "endDate": "2012-08-14 00:00:00", "lat": 61.505, "lon": -149.03055555556, "name": " Knik River Near Palmer 2 NW", "Notes": " USGS phone modem river stage" }, "geometry": { "type": "Point", "coordinates": [ -149.030555555559999, 61.505 ] } },
{ "type": "Feature", "properties": { "NWSID": " KNKA2 ", "startDate": "2012-08-14 00:00:00", "endDate": "            ", "lat": 61.505, "lon": -149.03055555556, "name": " Knik River Near Palmer 2 NW", "Notes": " USGS phone modem river stage" }, "geometry": { "type": "Point", "coordinates": [ -149.030555555559999, 61.505 ] } },
{ "type": "Feature", "properties": { "NWSID": " KOWA2 ", "startDate": "2005-09-22 00:00:00", "endDate": "2008-02-22 00:00:00", "lat": 62.1289, "lon": -150.4389, "name": " Kroto Creek At Oilwell Road", "Notes": " " }, "geometry": { "type": "Point", "coordinates": [ -150.4389, 62.1289 ] } },
{ "type": "Feature", "properties": { "NWSID": " KOWA2 ", "startDate": "2008-02-22 00:00:00", "endDate": "            ", "lat": 62.128888888889001, "lon": -150.43888888889001, "name": " Kroto Creek At Oilwell Road", "Notes": " " }, "geometry": { "type": "Point", "coordinates": [ -150.438888888890006, 62.128888888889001 ] } },
{ "type": "Feature", "properties": { "NWSID": " KPHA2 ", "startDate": "2015-01-14 00:00:00", "endDate": "2015-05-19 00:00:00", "lat": 55.344444444444001, "lon": -131.63361111111001, "name": " Ketchikan Powerhouse", "Notes": " " }, "geometry": { "type": "Point", "coordinates": [ -131.633611111110014, 55.344444444444001 ] } },
{ "type": "Feature", "properties": { "NWSID": " KPHA2 ", "startDate": "2015-05-19 00:00:00", "endDate": "            ", "lat": 55.344444444444001, "lon": -131.63361111111001, "name": " Ketchikan Powerhouse", "Notes": " " }, "geometry": { "type": "Point", "coordinates": [ -131.633611111110014, 55.344444444444001 ] } },
{ "type": "Feature", "properties": { "NWSID": " KRKA2 ", "startDate": "1997-06-05 00:00:00", "endDate": "2008-02-22 00:00:00", "lat": 60.5003, "lon": -150.6656, "name": " Blw Killey Rvr 4 SE", "Notes": null }, "geometry": { "type": "Point", "coordinates": [ -150.6656, 60.5003 ] } },
{ "type": "Feature", "properties": { "NWSID": " KRKA2 ", "startDate": "2008-02-22 00:00:00", "endDate": "            ", "lat": 60.491111111111003, "lon": -150.63055555555999, "name": " Kenai River Blw Mouth Killey River 4 SE", "Notes": null }, "geometry": { "type": "Point", "coordinates": [ -150.630555555559994, 60.491111111111003 ] } },
{ "type": "Feature", "properties": { "NWSID": " KSFA2 ", "startDate": "2010-05-27 00:00:00", "endDate": "            ", "lat": 60.318055555556001, "lon": -151.25972222222001, "name": " Kasilof River Near Kasilof", "Notes": " " }, "geometry": { "type": "Point", "coordinates": [ -151.259722222220006, 60.318055555556001 ] } },
{ "type": "Feature", "properties": { "NWSID": " KTIA2 ", "startDate": "2005-01-21 00:00:00", "endDate": "2008-02-22 00:00:00", "lat": 59.7939, "lon": -155.5217, "name": " Koktuli River Near Iliamna 19 NW", "Notes": " " }, "geometry": { "type": "Point", "coordinates": [ -155.5217, 59.7939 ] } },
{ "type": "Feature", "properties": { "NWSID": " KTIA2 ", "startDate": "2008-02-22 00:00:00", "endDate": "2008-06-16 00:00:00", "lat": 59.793888888889001, "lon": -155.52166666667, "name": " Koktuli River Near Iliamna 19 NW", "Notes": " " }, "geometry": { "type": "Point", "coordinates": [ -155.521666666670001, 59.793888888889001 ] } },
{ "type": "Feature", "properties": { "NWSID": " KTIA2 ", "startDate": "2008-06-16 00:00:00", "endDate": "2009-01-09 00:00:00", "lat": 59.793333333333003, "lon": -155.5225, "name": " Koktuli River Near Iliamna 19 NW", "Notes": " " }, "geometry": { "type": "Point", "coordinates": [ -155.5225, 59.793333333333003 ] } },
{ "type": "Feature", "properties": { "NWSID": " KTIA2 ", "startDate": "2009-01-09 00:00:00", "endDate": "2012-06-20 00:00:00", "lat": 59.793888888889001, "lon": -155.52166666667, "name": " Koktuli River Near Iliamna 19 NW", "Notes": " " }, "geometry": { "type": "Point", "coordinates": [ -155.521666666670001, 59.793888888889001 ] } },
{ "type": "Feature", "properties": { "NWSID": " KTIA2 ", "startDate": "2012-06-20 00:00:00", "endDate": "2012-12-03 00:00:00", "lat": 59.793333333333003, "lon": -155.5225, "name": " Koktuli River Near Iliamna 19 NW", "Notes": " " }, "geometry": { "type": "Point", "coordinates": [ -155.5225, 59.793333333333003 ] } },